[{
  "category": "anti-social-behaviour",
  "location_type": "Force",
  "location": {
    "latitude": "51.567552",
    "street": {
      "id": 972147,
      "name": "On or near Highgate Hill"
    },
    "longitude": "-0.138659"
  },
  "context": "",
  "outcome_status": null,
  "persistent_id": "",
  "id": 31064046,
  "location_subtype": "",
  "month": "2014-04"
}, {
  "category": "anti-social-behaviour",
  "location_type": "Force",
  "location": {
    "latitude": "51.567552",
    "street": {
      "id": 972147,
      "name": "On or near Highgate Hill"
    },
    "longitude": "-0.138659"
  },
  "context": "",
  "outcome_status": null,
  "persistent_id": "",
  "id": 31064044,
  "location_subtype": "",
  "month": "2014-04"
}, {
  "category": "anti-social-behaviour",
  "location_type": "Force",
  "location": {
    "latitude": "51.568062",
    "street": {
      "id": 972150,
      "name": "On or near Despard Road"
    },
    "longitude": "-0.137946"
  },
  "context": "",
  "outcome_status": null,
  "persistent_id": "",
  "id": 31064039,
  "location_subtype": "",
  "month": "2014-04"
}, {
  "category": "anti-social-behaviour",
  "location_type": "Force",
  "location": {
    "latitude": "51.567786",
    "street": {
      "id": 972145,
      "name": "On or near Lidyard Road"
    },
    "longitude": "-0.136990"
  },
  "context": "",
  "outcome_status": null,
  "persistent_id": "",
  "id": 31064034,
  "location_subtype": "",
  "month": "2014-04"
}, {
  "category": "anti-social-behaviour",
  "location_type": "Force",
  "location": {
    "latitude": "51.573551",
    "street": {
      "id": 974799,
      "name": "On or near Hornsey Lane"
    },
    "longitude": "-0.131400"
  },
  "context": "",
  "outcome_status": null,
  "persistent_id": "",
  "id": 31063997,
  "location_subtype": "",
  "month": "2014-04"
}, {
  "category": "anti-social-behaviour",
  "location_type": "Force",
  "location": {
    "latitude": "51.578331",
    "street": {
      "id": 974668,
      "name": "On or near Byron Drive"
    },
    "longitude": "-0.171082"
  },
  "context": "",
  "outcome_status": null,
  "persistent_id": "",
  "id": 31059279,
  "location_subtype": "",
  "month": "2014-04"
}, {
  "category": "anti-social-behaviour",
  "location_type": "Force",
  "location": {
    "latitude": "51.579489",
    "street": {
      "id": 974657,
      "name": "On or near The Bishops Avenue"
    },
    "longitude": "-0.169202"
  },
  "context": "",
  "outcome_status": null,
  "persistent_id": "",
  "id": 31059272,
  "location_subtype": "",
  "month": "2014-04"
}, {
  "category": "anti-social-behaviour",
  "location_type": "Force",
  "location": {
    "latitude": "51.586002",
    "street": {
      "id": 978608,
      "name": "On or near Sports\/recreation Area"
    },
    "longitude": "-0.159601"
  },
  "context": "",
  "outcome_status": null,
  "persistent_id": "",
  "id": 31059236,
  "location_subtype": "",
  "month": "2014-04"
}, {
  "category": "anti-social-behaviour",
  "location_type": "Force",
  "location": {
    "latitude": "51.586002",
    "street": {
      "id": 978608,
      "name": "On or near Sports\/recreation Area"
    },
    "longitude": "-0.159601"
  },
  "context": "",
  "outcome_status": null,
  "persistent_id": "",
  "id": 31059235,
  "location_subtype": "",
  "month": "2014-04"
}, {
  "category": "anti-social-behaviour",
  "location_type": "Force",
  "location": {
    "latitude": "51.573254",
    "street": {
      "id": 974697,
      "name": "On or near Ingram Avenue"
    },
    "longitude": "-0.177101"
  },
  "context": "",
  "outcome_status": null,
  "persistent_id": "",
  "id": 31059334,
  "location_subtype": "",
  "month": "2014-04"
}, {
  "category": "anti-social-behaviour",
  "location_type": "Force",
  "location": {
    "latitude": "51.580182",
    "street": {
      "id": 974767,
      "name": "On or near Summersby Road"
    },
    "longitude": "-0.145807"
  },
  "context": "",
  "outcome_status": null,
  "persistent_id": "",
  "id": 31054713,
  "location_subtype": "",
  "month": "2014-04"
}, {
  "category": "anti-social-behaviour",
  "location_type": "Force",
  "location": {
    "latitude": "51.578225",
    "street": {
      "id": 974857,
      "name": "On or near Priory Gardens"
    },
    "longitude": "-0.142582"
  },
  "context": "",
  "outcome_status": null,
  "persistent_id": "",
  "id": 31054708,
  "location_subtype": "",
  "month": "2014-04"
}, {
  "category": "anti-social-behaviour",
  "location_type": "Force",
  "location": {
    "latitude": "51.583422",
    "street": {
      "id": 974746,
      "name": "On or near Bancroft Avenue"
    },
    "longitude": "-0.163126"
  },
  "context": "",
  "outcome_status": null,
  "persistent_id": "",
  "id": 31054755,
  "location_subtype": "",
  "month": "2014-04"
}, {
  "category": "anti-social-behaviour",
  "location_type": "Force",
  "location": {
    "latitude": "51.583422",
    "street": {
      "id": 974746,
      "name": "On or near Bancroft Avenue"
    },
    "longitude": "-0.163126"
  },
  "context": "",
  "outcome_status": null,
  "persistent_id": "",
  "id": 31054756,
  "location_subtype": "",
  "month": "2014-04"
}, {
  "category": "anti-social-behaviour",
  "location_type": "Force",
  "location": {
    "latitude": "51.564817",
    "street": {
      "id": 972132,
      "name": "On or near Anatola Road"
    },
    "longitude": "-0.140286"
  },
  "context": "",
  "outcome_status": null,
  "persistent_id": "",
  "id": 31064050,
  "location_subtype": "",
  "month": "2014-04"
}, {
  "category": "anti-social-behaviour",
  "location_type": "Force",
  "location": {
    "latitude": "51.564817",
    "street": {
      "id": 972132,
      "name": "On or near Anatola Road"
    },
    "longitude": "-0.140286"
  },
  "context": "",
  "outcome_status": null,
  "persistent_id": "",
  "id": 31064049,
  "location_subtype": "",
  "month": "2014-04"
}, {
  "category": "anti-social-behaviour",
  "location_type": "Force",
  "location": {
    "latitude": "51.567552",
    "street": {
      "id": 972147,
      "name": "On or near Highgate Hill"
    },
    "longitude": "-0.138659"
  },
  "context": "",
  "outcome_status": null,
  "persistent_id": "",
  "id": 31064048,
  "location_subtype": "",
  "month": "2014-04"
}, {
  "category": "anti-social-behaviour",
  "location_type": "Force",
  "location": {
    "latitude": "51.567552",
    "street": {
      "id": 972147,
      "name": "On or near Highgate Hill"
    },
    "longitude": "-0.138659"
  },
  "context": "",
  "outcome_status": null,
  "persistent_id": "",
  "id": 31064047,
  "location_subtype": "",
  "month": "2014-04"
}, {
  "category": "anti-social-behaviour",
  "location_type": "Force",
  "location": {
    "latitude": "51.564817",
    "street": {
      "id": 972132,
      "name": "On or near Anatola Road"
    },
    "longitude": "-0.140286"
  },
  "context": "",
  "outcome_status": null,
  "persistent_id": "",
  "id": 31064045,
  "location_subtype": "",
  "month": "2014-04"
}, {
  "category": "anti-social-behaviour",
  "location_type": "Force",
  "location": {
    "latitude": "51.583422",
    "street": {
      "id": 974746,
      "name": "On or near Bancroft Avenue"
    },
    "longitude": "-0.163126"
  },
  "context": "",
  "outcome_status": null,
  "persistent_id": "",
  "id": 31054758,
  "location_subtype": "",
  "month": "2014-04"
}, {
  "category": "anti-social-behaviour",
  "location_type": "Force",
  "location": {
    "latitude": "51.588440",
    "street": {
      "id": 978562,
      "name": "On or near Grand Avenue"
    },
    "longitude": "-0.150538"
  },
  "context": "",
  "outcome_status": null,
  "persistent_id": "",
  "id": 31054747,
  "location_subtype": "",
  "month": "2014-04"
}, {
  "category": "anti-social-behaviour",
  "location_type": "Force",
  "location": {
    "latitude": "51.573695",
    "street": {
      "id": 974781,
      "name": "On or near Stanhope Road"
    },
    "longitude": "-0.134209"
  },
  "context": "",
  "outcome_status": null,
  "persistent_id": "",
  "id": 31054686,
  "location_subtype": "",
  "month": "2014-04"
}, {
  "category": "anti-social-behaviour",
  "location_type": "Force",
  "location": {
    "latitude": "51.573695",
    "street": {
      "id": 974781,
      "name": "On or near Stanhope Road"
    },
    "longitude": "-0.134209"
  },
  "context": "",
  "outcome_status": null,
  "persistent_id": "",
  "id": 31054687,
  "location_subtype": "",
  "month": "2014-04"
}, {
  "category": "anti-social-behaviour",
  "location_type": "Force",
  "location": {
    "latitude": "51.575655",
    "street": {
      "id": 974723,
      "name": "On or near Hillcrest"
    },
    "longitude": "-0.149527"
  },
  "context": "",
  "outcome_status": null,
  "persistent_id": "",
  "id": 31054743,
  "location_subtype": "",
  "month": "2014-04"
}, {
  "category": "anti-social-behaviour",
  "location_type": "Force",
  "location": {
    "latitude": "51.578685",
    "street": {
      "id": 974733,
      "name": "On or near Police Station"
    },
    "longitude": "-0.150082"
  },
  "context": "",
  "outcome_status": null,
  "persistent_id": "",
  "id": 31054744,
  "location_subtype": "",
  "month": "2014-04"
}, {
  "category": "anti-social-behaviour",
  "location_type": "Force",
  "location": {
    "latitude": "51.588440",
    "street": {
      "id": 978562,
      "name": "On or near Grand Avenue"
    },
    "longitude": "-0.150538"
  },
  "context": "",
  "outcome_status": null,
  "persistent_id": "",
  "id": 31054745,
  "location_subtype": "",
  "month": "2014-04"
}, {
  "category": "anti-social-behaviour",
  "location_type": "Force",
  "location": {
    "latitude": "51.578259",
    "street": {
      "id": 974848,
      "name": "On or near Broughton Gardens"
    },
    "longitude": "-0.136187"
  },
  "context": "",
  "outcome_status": null,
  "persistent_id": "",
  "id": 31054688,
  "location_subtype": "",
  "month": "2014-04"
}, {
  "category": "anti-social-behaviour",
  "location_type": "Force",
  "location": {
    "latitude": "51.588440",
    "street": {
      "id": 978562,
      "name": "On or near Grand Avenue"
    },
    "longitude": "-0.150538"
  },
  "context": "",
  "outcome_status": null,
  "persistent_id": "",
  "id": 31054746,
  "location_subtype": "",
  "month": "2014-04"
}, {
  "category": "anti-social-behaviour",
  "location_type": "Force",
  "location": {
    "latitude": "51.583422",
    "street": {
      "id": 974746,
      "name": "On or near Bancroft Avenue"
    },
    "longitude": "-0.163126"
  },
  "context": "",
  "outcome_status": null,
  "persistent_id": "",
  "id": 31054757,
  "location_subtype": "",
  "month": "2014-04"
}, {
  "category": "anti-social-behaviour",
  "location_type": "Force",
  "location": {
    "latitude": "51.569219",
    "street": {
      "id": 972158,
      "name": "On or near Highgate Hill"
    },
    "longitude": "-0.142270"
  },
  "context": "",
  "outcome_status": null,
  "persistent_id": "",
  "id": 31071581,
  "location_subtype": "",
  "month": "2014-04"
}, {
  "category": "anti-social-behaviour",
  "location_type": "Force",
  "location": {
    "latitude": "51.572783",
    "street": {
      "id": 974868,
      "name": "On or near Hornsey Lane Gardens"
    },
    "longitude": "-0.136252"
  },
  "context": "",
  "outcome_status": null,
  "persistent_id": "",
  "id": 31054689,
  "location_subtype": "",
  "month": "2014-04"
}, {
  "category": "anti-social-behaviour",
  "location_type": "Force",
  "location": {
    "latitude": "51.572783",
    "street": {
      "id": 974868,
      "name": "On or near Hornsey Lane Gardens"
    },
    "longitude": "-0.136252"
  },
  "context": "",
  "outcome_status": null,
  "persistent_id": "",
  "id": 31054690,
  "location_subtype": "",
  "month": "2014-04"
}, {
  "category": "anti-social-behaviour",
  "location_type": "Force",
  "location": {
    "latitude": "51.574135",
    "street": {
      "id": 974845,
      "name": "On or near Milton Park"
    },
    "longitude": "-0.137596"
  },
  "context": "",
  "outcome_status": null,
  "persistent_id": "",
  "id": 31054691,
  "location_subtype": "",
  "month": "2014-04"
}, {
  "category": "anti-social-behaviour",
  "location_type": "Force",
  "location": {
    "latitude": "51.575535",
    "street": {
      "id": 974847,
      "name": "On or near Claremont Road"
    },
    "longitude": "-0.137972"
  },
  "context": "",
  "outcome_status": null,
  "persistent_id": "",
  "id": 31054694,
  "location_subtype": "",
  "month": "2014-04"
}, {
  "category": "anti-social-behaviour",
  "location_type": "Force",
  "location": {
    "latitude": "51.580091",
    "street": {
      "id": 974742,
      "name": "On or near Kenwood Road"
    },
    "longitude": "-0.156000"
  },
  "context": "",
  "outcome_status": null,
  "persistent_id": "",
  "id": 31054751,
  "location_subtype": "",
  "month": "2014-04"
}, {
  "category": "anti-social-behaviour",
  "location_type": "Force",
  "location": {
    "latitude": "51.572701",
    "street": {
      "id": 974755,
      "name": "On or near Hampstead Lane"
    },
    "longitude": "-0.165261"
  },
  "context": "",
  "outcome_status": null,
  "persistent_id": "",
  "id": 31071727,
  "location_subtype": "",
  "month": "2014-04"
}, {
  "category": "anti-social-behaviour",
  "location_type": "Force",
  "location": {
    "latitude": "51.567637",
    "street": {
      "id": 972269,
      "name": "On or near Fitzroy Close"
    },
    "longitude": "-0.157139"
  },
  "context": "",
  "outcome_status": null,
  "persistent_id": "",
  "id": 31071691,
  "location_subtype": "",
  "month": "2014-04"
}, {
  "category": "anti-social-behaviour",
  "location_type": "Force",
  "location": {
    "latitude": "51.570489",
    "street": {
      "id": 972285,
      "name": "On or near The Grove"
    },
    "longitude": "-0.151555"
  },
  "context": "",
  "outcome_status": null,
  "persistent_id": "",
  "id": 31071664,
  "location_subtype": "",
  "month": "2014-04"
}, {
  "category": "anti-social-behaviour",
  "location_type": "Force",
  "location": {
    "latitude": "51.563776",
    "street": {
      "id": 972112,
      "name": "On or near Chester Road"
    },
    "longitude": "-0.143286"
  },
  "context": "",
  "outcome_status": null,
  "persistent_id": "",
  "id": 31071624,
  "location_subtype": "",
  "month": "2014-04"
}, {
  "category": "anti-social-behaviour",
  "location_type": "Force",
  "location": {
    "latitude": "51.563776",
    "street": {
      "id": 972112,
      "name": "On or near Chester Road"
    },
    "longitude": "-0.143286"
  },
  "context": "",
  "outcome_status": null,
  "persistent_id": "",
  "id": 31071621,
  "location_subtype": "",
  "month": "2014-04"
}, {
  "category": "anti-social-behaviour",
  "location_type": "Force",
  "location": {
    "latitude": "51.569219",
    "street": {
      "id": 972158,
      "name": "On or near Highgate Hill"
    },
    "longitude": "-0.142270"
  },
  "context": "",
  "outcome_status": null,
  "persistent_id": "",
  "id": 31071580,
  "location_subtype": "",
  "month": "2014-04"
}, {
  "category": "anti-social-behaviour",
  "location_type": "Force",
  "location": {
    "latitude": "51.569219",
    "street": {
      "id": 972158,
      "name": "On or near Highgate Hill"
    },
    "longitude": "-0.142270"
  },
  "context": "",
  "outcome_status": null,
  "persistent_id": "",
  "id": 31071579,
  "location_subtype": "",
  "month": "2014-04"
}, {
  "category": "anti-social-behaviour",
  "location_type": "Force",
  "location": {
    "latitude": "51.569219",
    "street": {
      "id": 972158,
      "name": "On or near Highgate Hill"
    },
    "longitude": "-0.142270"
  },
  "context": "",
  "outcome_status": null,
  "persistent_id": "",
  "id": 31071578,
  "location_subtype": "",
  "month": "2014-04"
}, {
  "category": "anti-social-behaviour",
  "location_type": "Force",
  "location": {
    "latitude": "51.564519",
    "street": {
      "id": 972108,
      "name": "On or near Raydon Street"
    },
    "longitude": "-0.142505"
  },
  "context": "",
  "outcome_status": null,
  "persistent_id": "",
  "id": 31071577,
  "location_subtype": "",
  "month": "2014-04"
}, {
  "category": "anti-social-behaviour",
  "location_type": "Force",
  "location": {
    "latitude": "51.564519",
    "street": {
      "id": 972108,
      "name": "On or near Raydon Street"
    },
    "longitude": "-0.142505"
  },
  "context": "",
  "outcome_status": null,
  "persistent_id": "",
  "id": 31071576,
  "location_subtype": "",
  "month": "2014-04"
}, {
  "category": "anti-social-behaviour",
  "location_type": "Force",
  "location": {
    "latitude": "51.564519",
    "street": {
      "id": 972108,
      "name": "On or near Raydon Street"
    },
    "longitude": "-0.142505"
  },
  "context": "",
  "outcome_status": null,
  "persistent_id": "",
  "id": 31071575,
  "location_subtype": "",
  "month": "2014-04"
}, {
  "category": "anti-social-behaviour",
  "location_type": "Force",
  "location": {
    "latitude": "51.564519",
    "street": {
      "id": 972108,
      "name": "On or near Raydon Street"
    },
    "longitude": "-0.142505"
  },
  "context": "",
  "outcome_status": null,
  "persistent_id": "",
  "id": 31071574,
  "location_subtype": "",
  "month": "2014-04"
}, {
  "category": "anti-social-behaviour",
  "location_type": "Force",
  "location": {
    "latitude": "51.564817",
    "street": {
      "id": 972132,
      "name": "On or near Anatola Road"
    },
    "longitude": "-0.140286"
  },
  "context": "",
  "outcome_status": null,
  "persistent_id": "",
  "id": 31071573,
  "location_subtype": "",
  "month": "2014-04"
}, {
  "category": "anti-social-behaviour",
  "location_type": "Force",
  "location": {
    "latitude": "51.564817",
    "street": {
      "id": 972132,
      "name": "On or near Anatola Road"
    },
    "longitude": "-0.140286"
  },
  "context": "",
  "outcome_status": null,
  "persistent_id": "",
  "id": 31071572,
  "location_subtype": "",
  "month": "2014-04"
}, {
  "category": "anti-social-behaviour",
  "location_type": "Force",
  "location": {
    "latitude": "51.569219",
    "street": {
      "id": 972158,
      "name": "On or near Highgate Hill"
    },
    "longitude": "-0.142270"
  },
  "context": "",
  "outcome_status": null,
  "persistent_id": "",
  "id": 31064051,
  "location_subtype": "",
  "month": "2014-04"
}, {
  "category": "bicycle-theft",
  "location_type": "Force",
  "location": {
    "latitude": "51.561805",
    "street": {
      "id": 972109,
      "name": "On or near Kingswear Road"
    },
    "longitude": "-0.144852"
  },
  "context": "",
  "outcome_status": {
    "category": "Under investigation",
    "date": "2014-04"
  },
  "persistent_id": "68ee00e621a5a0dee47764d6ccc9d2c40fb625eb8b952f04607bae0ad5b3b76f",
  "id": 31003544,
  "location_subtype": "",
  "month": "2014-04"
}, {
  "category": "bicycle-theft",
  "location_type": "Force",
  "location": {
    "latitude": "51.572858",
    "street": {
      "id": 974862,
      "name": "On or near Wembury Mews"
    },
    "longitude": "-0.139828"
  },
  "context": "",
  "outcome_status": {
    "category": "Awaiting court outcome",
    "date": "2014-04"
  },
  "persistent_id": "3715c02353ac68752fa06c6d355a7caeb07df6565aad3a99d0dfa2d09c762cda",
  "id": 31019010,
  "location_subtype": "",
  "month": "2014-04"
}, {
  "category": "bicycle-theft",
  "location_type": "BTP",
  "location": {
    "latitude": "51.587200",
    "street": {
      "id": 1488689,
      "name": "East Finchley"
    },
    "longitude": "-0.164847"
  },
  "context": "",
  "outcome_status": {
    "category": "Under investigation",
    "date": "2014-04"
  },
  "persistent_id": "",
  "id": 32421471,
  "location_subtype": "LU STATION",
  "month": "2014-04"
}, {
  "category": "bicycle-theft",
  "location_type": "Force",
  "location": {
    "latitude": "51.565995",
    "street": {
      "id": 972303,
      "name": "On or near Swain's Lane"
    },
    "longitude": "-0.146557"
  },
  "context": "",
  "outcome_status": {
    "category": "Under investigation",
    "date": "2014-04"
  },
  "persistent_id": "da0839abca733784d6dfb6640bc1135514b7a6abe700fd58dd389146454e24ec",
  "id": 31050784,
  "location_subtype": "",
  "month": "2014-04"
}, {
  "category": "bicycle-theft",
  "location_type": "Force",
  "location": {
    "latitude": "51.577476",
    "street": {
      "id": 974702,
      "name": "On or near Parking Area"
    },
    "longitude": "-0.145830"
  },
  "context": "",
  "outcome_status": {
    "category": "Under investigation",
    "date": "2014-04"
  },
  "persistent_id": "be7b33c8fee1d85a0fc5ff8a8af456515859735e22801b3f2a3b33899a6a398c",
  "id": 30970634,
  "location_subtype": "",
  "month": "2014-04"
}, {
  "category": "burglary",
  "location_type": "Force",
  "location": {
    "latitude": "51.566681",
    "street": {
      "id": 972136,
      "name": "On or near Hospital"
    },
    "longitude": "-0.138175"
  },
  "context": "",
  "outcome_status": {
    "category": "Under investigation",
    "date": "2014-04"
  },
  "persistent_id": "832c17222a477e4af0e0039d0346a2d5c560cbcea956bacba2288a7d0d328e05",
  "id": 31010517,
  "location_subtype": "",
  "month": "2014-04"
}, {
  "category": "burglary",
  "location_type": "Force",
  "location": {
    "latitude": "51.578225",
    "street": {
      "id": 974857,
      "name": "On or near Priory Gardens"
    },
    "longitude": "-0.142582"
  },
  "context": "",
  "outcome_status": {
    "category": "Under investigation",
    "date": "2014-04"
  },
  "persistent_id": "1db0743affe39ef88b4c27b88b0ff7e8cf520a0299bde3cf202cd1f117da9d4b",
  "id": 30963689,
  "location_subtype": "",
  "month": "2014-04"
}, {
  "category": "burglary",
  "location_type": "Force",
  "location": {
    "latitude": "51.572292",
    "street": {
      "id": 974864,
      "name": "On or near Ridings Close"
    },
    "longitude": "-0.135348"
  },
  "context": "",
  "outcome_status": {
    "category": "Under investigation",
    "date": "2014-04"
  },
  "persistent_id": "6da7028d96aaa327127924b517264d43752d2b5c845f456173ee57b5ab2d726f",
  "id": 30966957,
  "location_subtype": "",
  "month": "2014-04"
}, {
  "category": "burglary",
  "location_type": "Force",
  "location": {
    "latitude": "51.576209",
    "street": {
      "id": 974735,
      "name": "On or near View Close"
    },
    "longitude": "-0.156129"
  },
  "context": "",
  "outcome_status": {
    "category": "Under investigation",
    "date": "2014-04"
  },
  "persistent_id": "d1133d4d738cd5a3c9f3d2d8674f408e8470a783a3f4cab7ff22dd2a083cf402",
  "id": 30973307,
  "location_subtype": "",
  "month": "2014-04"
}, {
  "category": "burglary",
  "location_type": "Force",
  "location": {
    "latitude": "51.566681",
    "street": {
      "id": 972136,
      "name": "On or near Hospital"
    },
    "longitude": "-0.138175"
  },
  "context": "",
  "outcome_status": {
    "category": "Investigation complete; no suspect identified",
    "date": "2014-05"
  },
  "persistent_id": "137c77a5d7dc907a3eed6329b576e90be59441abb7eda95e2635ef7ee0d42296",
  "id": 31023658,
  "location_subtype": "",
  "month": "2014-04"
}, {
  "category": "burglary",
  "location_type": "Force",
  "location": {
    "latitude": "51.566681",
    "street": {
      "id": 972136,
      "name": "On or near Hospital"
    },
    "longitude": "-0.138175"
  },
  "context": "",
  "outcome_status": {
    "category": "Under investigation",
    "date": "2014-04"
  },
  "persistent_id": "832c17222a477e4af0e0039d0346a2d5c560cbcea956bacba2288a7d0d328e05",
  "id": 31010519,
  "location_subtype": "",
  "month": "2014-04"
}, {
  "category": "burglary",
  "location_type": "Force",
  "location": {
    "latitude": "51.562374",
    "street": {
      "id": 972272,
      "name": "On or near St Anne's Close"
    },
    "longitude": "-0.150701"
  },
  "context": "",
  "outcome_status": {
    "category": "Investigation complete; no suspect identified",
    "date": "2014-04"
  },
  "persistent_id": "aa0b7b3f4889fc45f221931fdd0b5eec68ac20e66dbe86e2ae5c97ea6956b808",
  "id": 31026499,
  "location_subtype": "",
  "month": "2014-04"
}, {
  "category": "burglary",
  "location_type": "Force",
  "location": {
    "latitude": "51.566681",
    "street": {
      "id": 972136,
      "name": "On or near Hospital"
    },
    "longitude": "-0.138175"
  },
  "context": "",
  "outcome_status": {
    "category": "Investigation complete; no suspect identified",
    "date": "2014-05"
  },
  "persistent_id": "5a3df4d9bef4069954a935d2cf4ac719d480aff60ac1b5fa91819143fdf84afc",
  "id": 31035160,
  "location_subtype": "",
  "month": "2014-04"
}, {
  "category": "burglary",
  "location_type": "Force",
  "location": {
    "latitude": "51.567804",
    "street": {
      "id": 972142,
      "name": "On or near Pauntley Street"
    },
    "longitude": "-0.135258"
  },
  "context": "",
  "outcome_status": {
    "category": "Investigation complete; no suspect identified",
    "date": "2014-04"
  },
  "persistent_id": "e6846d81fbeb6a53be6d93c8ff3eabd00c48389b4805cf5b55d48b5fb7401228",
  "id": 31041337,
  "location_subtype": "",
  "month": "2014-04"
}, {
  "category": "burglary",
  "location_type": "Force",
  "location": {
    "latitude": "51.588043",
    "street": {
      "id": 978518,
      "name": "On or near Southern Road"
    },
    "longitude": "-0.157887"
  },
  "context": "",
  "outcome_status": {
    "category": "Under investigation",
    "date": "2014-04"
  },
  "persistent_id": "2789ba1107060a664244264ad9b5ebb24df1c71c66929c494ca99bee0580388b",
  "id": 31044989,
  "location_subtype": "",
  "month": "2014-04"
}, {
  "category": "burglary",
  "location_type": "Force",
  "location": {
    "latitude": "51.569883",
    "street": {
      "id": 972138,
      "name": "On or near Whitehall Park"
    },
    "longitude": "-0.135981"
  },
  "context": "",
  "outcome_status": {
    "category": "Investigation complete; no suspect identified",
    "date": "2014-05"
  },
  "persistent_id": "157914ec4e9d45b596161c4792f05bb3fdeee5ba4ed86da96bb7bffbd9ccf79e",
  "id": 31052101,
  "location_subtype": "",
  "month": "2014-04"
}, {
  "category": "burglary",
  "location_type": "Force",
  "location": {
    "latitude": "51.578895",
    "street": {
      "id": 974704,
      "name": "On or near Wood Lane"
    },
    "longitude": "-0.145729"
  },
  "context": "",
  "outcome_status": {
    "category": "Investigation complete; no suspect identified",
    "date": "2014-04"
  },
  "persistent_id": "391001a5525eb5166290dfc979b3aca8521afeaa66c15831ee9214516c4fe3d4",
  "id": 31023510,
  "location_subtype": "",
  "month": "2014-04"
}, {
  "category": "burglary",
  "location_type": "Force",
  "location": {
    "latitude": "51.569883",
    "street": {
      "id": 972138,
      "name": "On or near Whitehall Park"
    },
    "longitude": "-0.135981"
  },
  "context": "",
  "outcome_status": {
    "category": "Under investigation",
    "date": "2014-04"
  },
  "persistent_id": "157914ec4e9d45b596161c4792f05bb3fdeee5ba4ed86da96bb7bffbd9ccf79e",
  "id": 31052100,
  "location_subtype": "",
  "month": "2014-04"
}, {
  "category": "burglary",
  "location_type": "Force",
  "location": {
    "latitude": "51.586677",
    "street": {
      "id": 978598,
      "name": "On or near Pedestrian Subway"
    },
    "longitude": "-0.147058"
  },
  "context": "",
  "outcome_status": {
    "category": "Under investigation",
    "date": "2014-04"
  },
  "persistent_id": "2366162310922d56c24976a08d2c66c58a40fd9d81c6cabe7cd1b4380c35a737",
  "id": 31050429,
  "location_subtype": "",
  "month": "2014-04"
}, {
  "category": "burglary",
  "location_type": "Force",
  "location": {
    "latitude": "51.588539",
    "street": {
      "id": 978557,
      "name": "On or near Lauradale Road"
    },
    "longitude": "-0.153955"
  },
  "context": "",
  "outcome_status": {
    "category": "Under investigation",
    "date": "2014-04"
  },
  "persistent_id": "e77a52b3aac544414ea82377bad50b7ad806d15c7c5c3f24b60f67496c44926d",
  "id": 31050423,
  "location_subtype": "",
  "month": "2014-04"
}, {
  "category": "burglary",
  "location_type": "Force",
  "location": {
    "latitude": "51.585830",
    "street": {
      "id": 978732,
      "name": "On or near Harford Walk"
    },
    "longitude": "-0.169294"
  },
  "context": "",
  "outcome_status": {
    "category": "Investigation complete; no suspect identified",
    "date": "2014-05"
  },
  "persistent_id": "bbf3d231bcc2691061d7a721cdabc2443b92e8d9b3f94b345acdaf04e9abfec9",
  "id": 31047615,
  "location_subtype": "",
  "month": "2014-04"
}, {
  "category": "burglary",
  "location_type": "Force",
  "location": {
    "latitude": "51.584689",
    "street": {
      "id": 974860,
      "name": "On or near Connaught Gardens"
    },
    "longitude": "-0.139662"
  },
  "context": "",
  "outcome_status": {
    "category": "Under investigation",
    "date": "2014-04"
  },
  "persistent_id": "7c1d628bdd84d0ac492c5d8b7464dbb5331ddda498157807aaa3655066c7f11b",
  "id": 31037985,
  "location_subtype": "",
  "month": "2014-04"
}, {
  "category": "burglary",
  "location_type": "Force",
  "location": {
    "latitude": "51.571629",
    "street": {
      "id": 972137,
      "name": "On or near Winchester Road"
    },
    "longitude": "-0.140570"
  },
  "context": "",
  "outcome_status": {
    "category": "Under investigation",
    "date": "2014-04"
  },
  "persistent_id": "c61d75b4769f1f5608d7c902b0b237d7bd94fd9ffd8874dad160f92a42ec1796",
  "id": 31032065,
  "location_subtype": "",
  "month": "2014-04"
}, {
  "category": "burglary",
  "location_type": "Force",
  "location": {
    "latitude": "51.576870",
    "street": {
      "id": 974739,
      "name": "On or near Sheldon Avenue"
    },
    "longitude": "-0.160475"
  },
  "context": "",
  "outcome_status": {
    "category": "Under investigation",
    "date": "2014-04"
  },
  "persistent_id": "75a99a30089ed08ff97aaaaee143b9ec9b3c2bc9be0bc0d1f5f4f77001609478",
  "id": 31027863,
  "location_subtype": "",
  "month": "2014-04"
}, {
  "category": "burglary",
  "location_type": "Force",
  "location": {
    "latitude": "51.578169",
    "street": {
      "id": 974839,
      "name": "On or near Shepherd's Hill"
    },
    "longitude": "-0.137893"
  },
  "context": "",
  "outcome_status": {
    "category": "Under investigation",
    "date": "2014-04"
  },
  "persistent_id": "01b86a70b02f29ef82a453134d587f7c2fc8445e90eeb45add4adf21015de02d",
  "id": 31006688,
  "location_subtype": "",
  "month": "2014-04"
}, {
  "category": "burglary",
  "location_type": "Force",
  "location": {
    "latitude": "51.566681",
    "street": {
      "id": 972136,
      "name": "On or near Hospital"
    },
    "longitude": "-0.138175"
  },
  "context": "",
  "outcome_status": {
    "category": "Under investigation",
    "date": "2014-04"
  },
  "persistent_id": "5de2423d4d2c6724e74e2070ce725354ff731a9bde3404b5e048a342da03030a",
  "id": 31001089,
  "location_subtype": "",
  "month": "2014-04"
}, {
  "category": "burglary",
  "location_type": "Force",
  "location": {
    "latitude": "51.566564",
    "street": {
      "id": 972271,
      "name": "On or near Westhill Park"
    },
    "longitude": "-0.155278"
  },
  "context": "",
  "outcome_status": {
    "category": "Under investigation",
    "date": "2014-04"
  },
  "persistent_id": "664b7e262fe3af0da5aaeef55bd9256692b5d2571a89019492ca2b0fe5421ede",
  "id": 30999591,
  "location_subtype": "",
  "month": "2014-04"
}, {
  "category": "burglary",
  "location_type": "Force",
  "location": {
    "latitude": "51.587400",
    "street": {
      "id": 978524,
      "name": "On or near Ingram Road"
    },
    "longitude": "-0.162749"
  },
  "context": "",
  "outcome_status": {
    "category": "Under investigation",
    "date": "2014-04"
  },
  "persistent_id": "7e21e677170c1bbcae355e92c2d99491ef0f6563205360ec0d0bf3aa2b55243c",
  "id": 30988202,
  "location_subtype": "",
  "month": "2014-04"
}, {
  "category": "burglary",
  "location_type": "Force",
  "location": {
    "latitude": "51.574376",
    "street": {
      "id": 974843,
      "name": "On or near Northwood Road"
    },
    "longitude": "-0.140300"
  },
  "context": "",
  "outcome_status": {
    "category": "Under investigation",
    "date": "2014-04"
  },
  "persistent_id": "8c46bc775939251d36cabbc758179c8396a55e93edfb272957e02ac2cb1ca72f",
  "id": 30977096,
  "location_subtype": "",
  "month": "2014-04"
}, {
  "category": "burglary",
  "location_type": "Force",
  "location": {
    "latitude": "51.569219",
    "street": {
      "id": 972158,
      "name": "On or near Highgate Hill"
    },
    "longitude": "-0.142270"
  },
  "context": "",
  "outcome_status": {
    "category": "Under investigation",
    "date": "2014-04"
  },
  "persistent_id": "3a6df5d300cd0924a343990e6ab170af305bc44c2d3cdfa9f8487ef21d8ea3d8",
  "id": 30971504,
  "location_subtype": "",
  "month": "2014-04"
}, {
  "category": "burglary",
  "location_type": "Force",
  "location": {
    "latitude": "51.588705",
    "street": {
      "id": 978563,
      "name": "On or near Grand Avenue"
    },
    "longitude": "-0.147972"
  },
  "context": "",
  "outcome_status": {
    "category": "Under investigation",
    "date": "2014-04"
  },
  "persistent_id": "a0fe67887bb72c035e1fab9f96a682117b808e0cc9c00f754c10b2660fd701bb",
  "id": 30970565,
  "location_subtype": "",
  "month": "2014-04"
}, {
  "category": "burglary",
  "location_type": "Force",
  "location": {
    "latitude": "51.562374",
    "street": {
      "id": 972272,
      "name": "On or near St Anne's Close"
    },
    "longitude": "-0.150701"
  },
  "context": "",
  "outcome_status": {
    "category": "Investigation complete; no suspect identified",
    "date": "2014-05"
  },
  "persistent_id": "260285825db9dfaaf8fda091a3e64f63be865b8c9aa417738eb56d89345eff76",
  "id": 30968936,
  "location_subtype": "",
  "month": "2014-04"
}, {
  "category": "burglary",
  "location_type": "Force",
  "location": {
    "latitude": "51.585830",
    "street": {
      "id": 978732,
      "name": "On or near Harford Walk"
    },
    "longitude": "-0.169294"
  },
  "context": "",
  "outcome_status": {
    "category": "Under investigation",
    "date": "2014-04"
  },
  "persistent_id": "7e3a2a20388b00d4aaaec50de4ceaaa488d15315bcae0e6bca4a6875f5c0ffd6",
  "id": 30968829,
  "location_subtype": "",
  "month": "2014-04"
}, {
  "category": "burglary",
  "location_type": "Force",
  "location": {
    "latitude": "51.565757",
    "street": {
      "id": 972121,
      "name": "On or near Magdala Avenue"
    },
    "longitude": "-0.138905"
  },
  "context": "",
  "outcome_status": {
    "category": "Under investigation",
    "date": "2014-04"
  },
  "persistent_id": "08bba446996e56972f3fd46677ef97c5f1f5bda666dd95d0909425d6b275060e",
  "id": 30968564,
  "location_subtype": "",
  "month": "2014-04"
}, {
  "category": "burglary",
  "location_type": "Force",
  "location": {
    "latitude": "51.563776",
    "street": {
      "id": 972112,
      "name": "On or near Chester Road"
    },
    "longitude": "-0.143286"
  },
  "context": "",
  "outcome_status": {
    "category": "Investigation complete; no suspect identified",
    "date": "2014-05"
  },
  "persistent_id": "f3d0e16cba535795c4506458654bf63048d271a9e1b78c012d179a5f60c52272",
  "id": 30963944,
  "location_subtype": "",
  "month": "2014-04"
}, {
  "category": "burglary",
  "location_type": "Force",
  "location": {
    "latitude": "51.571023",
    "street": {
      "id": 972288,
      "name": "On or near Highgate High Street"
    },
    "longitude": "-0.148921"
  },
  "context": "",
  "outcome_status": {
    "category": "Investigation complete; no suspect identified",
    "date": "2014-04"
  },
  "persistent_id": "24c0584eedcbd48231993e6e6c81bef3b4fe51e03eae60e6ffc4b1fdeaabc4f0",
  "id": 30963985,
  "location_subtype": "",
  "month": "2014-04"
}, {
  "category": "burglary",
  "location_type": "Force",
  "location": {
    "latitude": "51.575655",
    "street": {
      "id": 974723,
      "name": "On or near Hillcrest"
    },
    "longitude": "-0.149527"
  },
  "context": "",
  "outcome_status": {
    "category": "Investigation complete; no suspect identified",
    "date": "2014-04"
  },
  "persistent_id": "7927cd5bb1fcae170583b48dee4ae0124e7a795753c3a31774ee4067470a457a",
  "id": 31006552,
  "location_subtype": "",
  "month": "2014-04"
}, {
  "category": "burglary",
  "location_type": "Force",
  "location": {
    "latitude": "51.574135",
    "street": {
      "id": 974845,
      "name": "On or near Milton Park"
    },
    "longitude": "-0.137596"
  },
  "context": "",
  "outcome_status": {
    "category": "Investigation complete; no suspect identified",
    "date": "2014-04"
  },
  "persistent_id": "a800bae66d094ceb91201359b20902c13bad2d0494e0940f12ac902479006f4b",
  "id": 31010175,
  "location_subtype": "",
  "month": "2014-04"
}, {
  "category": "burglary",
  "location_type": "Force",
  "location": {
    "latitude": "51.583435",
    "street": {
      "id": 974653,
      "name": "On or near Aylmer Road"
    },
    "longitude": "-0.166821"
  },
  "context": "",
  "outcome_status": {
    "category": "Investigation complete; no suspect identified",
    "date": "2014-05"
  },
  "persistent_id": "9df9dfd3f921a8ea5caecdf5f2980e649ff5d7e3bf6e72cf88852b6212429eee",
  "id": 31029792,
  "location_subtype": "",
  "month": "2014-04"
}, {
  "category": "criminal-damage-arson",
  "location_type": "BTP",
  "location": {
    "latitude": "51.577700",
    "street": {
      "id": 1488698,
      "name": "Highgate"
    },
    "longitude": "-0.145833"
  },
  "context": "",
  "outcome_status": {
    "category": "Under investigation",
    "date": "2014-04"
  },
  "persistent_id": "",
  "id": 32421620,
  "location_subtype": "LU STATION",
  "month": "2014-04"
}, {
  "category": "criminal-damage-arson",
  "location_type": "Force",
  "location": {
    "latitude": "51.564519",
    "street": {
      "id": 972108,
      "name": "On or near Raydon Street"
    },
    "longitude": "-0.142505"
  },
  "context": "",
  "outcome_status": {
    "category": "Under investigation",
    "date": "2014-04"
  },
  "persistent_id": "bd1b61bbe4086b03b4227d78947a0be89f34db45237e76c1a485fe598a603f67",
  "id": 31030312,
  "location_subtype": "",
  "month": "2014-04"
}, {
  "category": "criminal-damage-arson",
  "location_type": "Force",
  "location": {
    "latitude": "51.578259",
    "street": {
      "id": 974848,
      "name": "On or near Broughton Gardens"
    },
    "longitude": "-0.136187"
  },
  "context": "",
  "outcome_status": {
    "category": "Under investigation",
    "date": "2014-04"
  },
  "persistent_id": "bfbe8f259d2467486fa57a03b883c3d5a5b8b24df47c6ab02305a743af82c576",
  "id": 31002806,
  "location_subtype": "",
  "month": "2014-04"
}, {
  "category": "criminal-damage-arson",
  "location_type": "Force",
  "location": {
    "latitude": "51.565757",
    "street": {
      "id": 972121,
      "name": "On or near Magdala Avenue"
    },
    "longitude": "-0.138905"
  },
  "context": "",
  "outcome_status": {
    "category": "Under investigation",
    "date": "2014-04"
  },
  "persistent_id": "1dae4840871aa5a038c1c2d71b881e0729b39580a9261edbea512e66d7dbf4f3",
  "id": 31032557,
  "location_subtype": "",
  "month": "2014-04"
}, {
  "category": "criminal-damage-arson",
  "location_type": "Force",
  "location": {
    "latitude": "51.582473",
    "street": {
      "id": 974658,
      "name": "On or near Norrice Lea"
    },
    "longitude": "-0.173773"
  },
  "context": "",
  "outcome_status": {
    "category": "Under investigation",
    "date": "2014-04"
  },
  "persistent_id": "9b8e6434440acb2416074296c8c53c743da35bb5846f7f75550edaf35d17d867",
  "id": 30999707,
  "location_subtype": "",
  "month": "2014-04"
}, {
  "category": "criminal-damage-arson",
  "location_type": "Force",
  "location": {
    "latitude": "51.575655",
    "street": {
      "id": 974723,
      "name": "On or near Hillcrest"
    },
    "longitude": "-0.149527"
  },
  "context": "",
  "outcome_status": {
    "category": "Under investigation",
    "date": "2014-04"
  },
  "persistent_id": "40634d5a663ee5d844eed0ded631fd102210900a642e59b2e50550dc98bd56cc",
  "id": 30993983,
  "location_subtype": "",
  "month": "2014-04"
}, {
  "category": "criminal-damage-arson",
  "location_type": "Force",
  "location": {
    "latitude": "51.585679",
    "street": {
      "id": 978600,
      "name": "On or near Muswell Hill Road"
    },
    "longitude": "-0.147113"
  },
  "context": "",
  "outcome_status": {
    "category": "Under investigation",
    "date": "2014-04"
  },
  "persistent_id": "79143b056a4113673c925e81466a8922e4863ec60961b3fb0dd21b5a88460c9d",
  "id": 30987273,
  "location_subtype": "",
  "month": "2014-04"
}, {
  "category": "criminal-damage-arson",
  "location_type": "Force",
  "location": {
    "latitude": "51.564519",
    "street": {
      "id": 972108,
      "name": "On or near Raydon Street"
    },
    "longitude": "-0.142505"
  },
  "context": "",
  "outcome_status": {
    "category": "Investigation complete; no suspect identified",
    "date": "2014-05"
  },
  "persistent_id": "e11d4c8effc623900a739d6ba916d104ce15a8901fe258b5e4bfcb1f7a19cb3f",
  "id": 30968550,
  "location_subtype": "",
  "month": "2014-04"
}, {
  "category": "criminal-damage-arson",
  "location_type": "Force",
  "location": {
    "latitude": "51.582743",
    "street": {
      "id": 974836,
      "name": "On or near Wood Vale"
    },
    "longitude": "-0.138269"
  },
  "context": "",
  "outcome_status": {
    "category": "Under investigation",
    "date": "2014-04"
  },
  "persistent_id": "42b3147a48f4c0d1cc3c7b4275e594c5df7e3ee944343b65f8a604ac45ea4c2f",
  "id": 30982897,
  "location_subtype": "",
  "month": "2014-04"
}, {
  "category": "criminal-damage-arson",
  "location_type": "Force",
  "location": {
    "latitude": "51.563776",
    "street": {
      "id": 972112,
      "name": "On or near Chester Road"
    },
    "longitude": "-0.143286"
  },
  "context": "",
  "outcome_status": {
    "category": "Investigation complete; no suspect identified",
    "date": "2014-05"
  },
  "persistent_id": "99375ba4da5cccfac88ec9ea9487dad72be98abee60be433c45774fa4c4f23a6",
  "id": 31044790,
  "location_subtype": "",
  "month": "2014-04"
}, {
  "category": "criminal-damage-arson",
  "location_type": "Force",
  "location": {
    "latitude": "51.584142",
    "street": {
      "id": 974715,
      "name": "On or near Onslow Gardens"
    },
    "longitude": "-0.144260"
  },
  "context": "",
  "outcome_status": {
    "category": "Under investigation",
    "date": "2014-04"
  },
  "persistent_id": "45633ff9c2cbe4c2bcf1408f4faa33ebf7841dc20ec5aac84ddf134fe7c83085",
  "id": 30977018,
  "location_subtype": "",
  "month": "2014-04"
}, {
  "category": "criminal-damage-arson",
  "location_type": "Force",
  "location": {
    "latitude": "51.587071",
    "street": {
      "id": 978428,
      "name": "On or near Ellington Road"
    },
    "longitude": "-0.142408"
  },
  "context": "",
  "outcome_status": {
    "category": "Under investigation",
    "date": "2014-04"
  },
  "persistent_id": "f2084cb0ccd0c143893a2f2878efb2955fff100bb403f9bacf97ea87155b8731",
  "id": 31035007,
  "location_subtype": "",
  "month": "2014-04"
}, {
  "category": "criminal-damage-arson",
  "location_type": "Force",
  "location": {
    "latitude": "51.580973",
    "street": {
      "id": 974719,
      "name": "On or near Muswell Hill Road"
    },
    "longitude": "-0.146915"
  },
  "context": "",
  "outcome_status": {
    "category": "Awaiting court outcome",
    "date": "2014-05"
  },
  "persistent_id": "9256bffa04f815f1a5fa4314d77e2441129ef99c90f2311c67db6107cfafff3c",
  "id": 31050468,
  "location_subtype": "",
  "month": "2014-04"
}, {
  "category": "criminal-damage-arson",
  "location_type": "Force",
  "location": {
    "latitude": "51.564519",
    "street": {
      "id": 972108,
      "name": "On or near Raydon Street"
    },
    "longitude": "-0.142505"
  },
  "context": "",
  "outcome_status": {
    "category": "Offender given a caution",
    "date": "2014-05"
  },
  "persistent_id": "9f1b1ca9de80a85cba498259ed1e4e7cde4e55320f6f087f27625de496d4ea7c",
  "id": 31052275,
  "location_subtype": "",
  "month": "2014-04"
}, {
  "category": "criminal-damage-arson",
  "location_type": "Force",
  "location": {
    "latitude": "51.582743",
    "street": {
      "id": 974836,
      "name": "On or near Wood Vale"
    },
    "longitude": "-0.138269"
  },
  "context": "",
  "outcome_status": {
    "category": "Under investigation",
    "date": "2014-04"
  },
  "persistent_id": "b7b06996ac918c2e9e22732bae9b4f3b37966e6798019edd10faea8c828f09a7",
  "id": 30963833,
  "location_subtype": "",
  "month": "2014-04"
}, {
  "category": "drugs",
  "location_type": "Force",
  "location": {
    "latitude": "51.567552",
    "street": {
      "id": 972147,
      "name": "On or near Highgate Hill"
    },
    "longitude": "-0.138659"
  },
  "context": "",
  "outcome_status": {
    "category": "Under investigation",
    "date": "2014-04"
  },
  "persistent_id": "cdfe07c532973a453adeb6e9f4a56838d7d198269b02bfa8b67e879202be19a0",
  "id": 31002843,
  "location_subtype": "",
  "month": "2014-04"
}, {
  "category": "drugs",
  "location_type": "Force",
  "location": {
    "latitude": "51.588386",
    "street": {
      "id": 978515,
      "name": "On or near Summerlee Avenue"
    },
    "longitude": "-0.160818"
  },
  "context": "",
  "outcome_status": {
    "category": "Under investigation",
    "date": "2014-04"
  },
  "persistent_id": "1d56572c0e31bf50bb64c2eec27b003687a6540c884fc9a5e85e13d0dcde9191",
  "id": 31007239,
  "location_subtype": "",
  "month": "2014-04"
}, {
  "category": "drugs",
  "location_type": "Force",
  "location": {
    "latitude": "51.564264",
    "street": {
      "id": 972110,
      "name": "On or near Doynton Street"
    },
    "longitude": "-0.141722"
  },
  "context": "",
  "outcome_status": {
    "category": "Offender given a drugs possession warning",
    "date": "2014-04"
  },
  "persistent_id": "bfe3985988f9764a2cf7d7e2d44a2c644127f95b680792da3ccc626e29517075",
  "id": 30999864,
  "location_subtype": "",
  "month": "2014-04"
}, {
  "category": "drugs",
  "location_type": "Force",
  "location": {
    "latitude": "51.563323",
    "street": {
      "id": 972128,
      "name": "On or near Dartmouth Park Hill"
    },
    "longitude": "-0.140765"
  },
  "context": "",
  "outcome_status": {
    "category": "Awaiting court outcome",
    "date": "2014-04"
  },
  "persistent_id": "74bcda2758f02e8ae72e59e66fd9734ced3b4825fc5bc85be63bee2d85c734ea",
  "id": 30999321,
  "location_subtype": "",
  "month": "2014-04"
}, {
  "category": "drugs",
  "location_type": "Force",
  "location": {
    "latitude": "51.563323",
    "street": {
      "id": 972128,
      "name": "On or near Dartmouth Park Hill"
    },
    "longitude": "-0.140765"
  },
  "context": "",
  "outcome_status": {
    "category": "Offender fined",
    "date": "2014-04"
  },
  "persistent_id": "dad1e0305fd4ce16f343545d0f9204813d1687073b529a742e95aab6cd9e9f3b",
  "id": 30979147,
  "location_subtype": "",
  "month": "2014-04"
}, {
  "category": "drugs",
  "location_type": "Force",
  "location": {
    "latitude": "51.563323",
    "street": {
      "id": 972128,
      "name": "On or near Dartmouth Park Hill"
    },
    "longitude": "-0.140765"
  },
  "context": "",
  "outcome_status": {
    "category": "Offender fined",
    "date": "2014-04"
  },
  "persistent_id": "460b788f94c8fa02e055477e852d72ef17d79897297852f0605003adbf279549",
  "id": 31021048,
  "location_subtype": "",
  "month": "2014-04"
}, {
  "category": "other-theft",
  "location_type": "Force",
  "location": {
    "latitude": "51.583422",
    "street": {
      "id": 974746,
      "name": "On or near Bancroft Avenue"
    },
    "longitude": "-0.163126"
  },
  "context": "",
  "outcome_status": {
    "category": "Under investigation",
    "date": "2014-04"
  },
  "persistent_id": "cfd15bb17ac250a72dc1fafbc6315b50e3f2c1db2f441c481f58c53db04f6a29",
  "id": 31035098,
  "location_subtype": "",
  "month": "2014-04"
}, {
  "category": "other-theft",
  "location_type": "Force",
  "location": {
    "latitude": "51.574376",
    "street": {
      "id": 974843,
      "name": "On or near Northwood Road"
    },
    "longitude": "-0.140300"
  },
  "context": "",
  "outcome_status": {
    "category": "Investigation complete; no suspect identified",
    "date": "2014-05"
  },
  "persistent_id": "d0302125deb283098d9e68dcbdb9f2f48d8e2cbecd4997f9f7bdcab5e987e6ee",
  "id": 30967198,
  "location_subtype": "",
  "month": "2014-04"
}, {
  "category": "other-theft",
  "location_type": "Force",
  "location": {
    "latitude": "51.567552",
    "street": {
      "id": 972147,
      "name": "On or near Highgate Hill"
    },
    "longitude": "-0.138659"
  },
  "context": "",
  "outcome_status": {
    "category": "Under investigation",
    "date": "2014-04"
  },
  "persistent_id": "d111b6fcfcc2bad8dc4412c9549296d62201110c01499f30682ce0ae01ed31c9",
  "id": 31052283,
  "location_subtype": "",
  "month": "2014-04"
}, {
  "category": "other-theft",
  "location_type": "Force",
  "location": {
    "latitude": "51.569177",
    "street": {
      "id": 972144,
      "name": "On or near Netherleigh Close"
    },
    "longitude": "-0.140757"
  },
  "context": "",
  "outcome_status": {
    "category": "Under investigation",
    "date": "2014-04"
  },
  "persistent_id": "28cfb9614a7e9757f73991a9dec9a47a7a1a9602f9fe0db3fb876dd3a6fe9aa3",
  "id": 30963725,
  "location_subtype": "",
  "month": "2014-04"
}, {
  "category": "other-theft",
  "location_type": "Force",
  "location": {
    "latitude": "51.561752",
    "street": {
      "id": 972273,
      "name": "On or near St Alban's Road"
    },
    "longitude": "-0.147192"
  },
  "context": "",
  "outcome_status": {
    "category": "Investigation complete; no suspect identified",
    "date": "2014-04"
  },
  "persistent_id": "5f2e5fc38f2b6843a29f1cb3e86d4e7f9d5f031f3bd838db8be3f3eb18b44e60",
  "id": 31033022,
  "location_subtype": "",
  "month": "2014-04"
}, {
  "category": "other-theft",
  "location_type": "Force",
  "location": {
    "latitude": "51.567552",
    "street": {
      "id": 972147,
      "name": "On or near Highgate Hill"
    },
    "longitude": "-0.138659"
  },
  "context": "",
  "outcome_status": {
    "category": "Investigation complete; no suspect identified",
    "date": "2014-04"
  },
  "persistent_id": "5c037d66ae36477a6a9b9173288321a32e12887bdc88e792833aa67b9789fed0",
  "id": 31007708,
  "location_subtype": "",
  "month": "2014-04"
}, {
  "category": "other-theft",
  "location_type": "Force",
  "location": {
    "latitude": "51.566681",
    "street": {
      "id": 972136,
      "name": "On or near Hospital"
    },
    "longitude": "-0.138175"
  },
  "context": "",
  "outcome_status": {
    "category": "Investigation complete; no suspect identified",
    "date": "2014-05"
  },
  "persistent_id": "c05dac1a598da84f94c3e621c7a20075d1acc85d411261e3f38f7daed89079c8",
  "id": 30977810,
  "location_subtype": "",
  "month": "2014-04"
}, {
  "category": "other-theft",
  "location_type": "Force",
  "location": {
    "latitude": "51.573551",
    "street": {
      "id": 974799,
      "name": "On or near Hornsey Lane"
    },
    "longitude": "-0.131400"
  },
  "context": "",
  "outcome_status": {
    "category": "Local resolution",
    "date": "2014-04"
  },
  "persistent_id": "9351ade9dd9a953718789009a1577402c160b2e46d2f693e8b03f308bfeb6de7",
  "id": 30999397,
  "location_subtype": "",
  "month": "2014-04"
}, {
  "category": "other-theft",
  "location_type": "Force",
  "location": {
    "latitude": "51.571023",
    "street": {
      "id": 972288,
      "name": "On or near Highgate High Street"
    },
    "longitude": "-0.148921"
  },
  "context": "",
  "outcome_status": {
    "category": "Under investigation",
    "date": "2014-04"
  },
  "persistent_id": "7463dfb755577151bcf7e79f47b114e0f29d32f5a82f3b668d47825741685d77",
  "id": 31026384,
  "location_subtype": "",
  "month": "2014-04"
}, {
  "category": "other-theft",
  "location_type": "Force",
  "location": {
    "latitude": "51.567552",
    "street": {
      "id": 972147,
      "name": "On or near Highgate Hill"
    },
    "longitude": "-0.138659"
  },
  "context": "",
  "outcome_status": {
    "category": "Under investigation",
    "date": "2014-04"
  },
  "persistent_id": "ffb23792a69a81c4f9b907784295f6544ab81115c0e512a2d742735eb101ae49",
  "id": 31002892,
  "location_subtype": "",
  "month": "2014-04"
}, {
  "category": "other-theft",
  "location_type": "Force",
  "location": {
    "latitude": "51.567552",
    "street": {
      "id": 972147,
      "name": "On or near Highgate Hill"
    },
    "longitude": "-0.138659"
  },
  "context": "",
  "outcome_status": {
    "category": "Under investigation",
    "date": "2014-04"
  },
  "persistent_id": "fe37f235a3de831ae53f2133d1755e341d4bc498aaab9881c3bba2b2b4746466",
  "id": 31025270,
  "location_subtype": "",
  "month": "2014-04"
}, {
  "category": "other-theft",
  "location_type": "Force",
  "location": {
    "latitude": "51.580593",
    "street": {
      "id": 974730,
      "name": "On or near Baker's Lane"
    },
    "longitude": "-0.154768"
  },
  "context": "",
  "outcome_status": {
    "category": "Investigation complete; no suspect identified",
    "date": "2014-05"
  },
  "persistent_id": "07fc9e98d715f9e771b8d5e3bfce3603bdb3a4c346dcc06702a9996c4603524f",
  "id": 30968353,
  "location_subtype": "",
  "month": "2014-04"
}, {
  "category": "other-theft",
  "location_type": "Force",
  "location": {
    "latitude": "51.580593",
    "street": {
      "id": 974730,
      "name": "On or near Baker's Lane"
    },
    "longitude": "-0.154768"
  },
  "context": "",
  "outcome_status": {
    "category": "Investigation complete; no suspect identified",
    "date": "2014-05"
  },
  "persistent_id": "b11113613cd577d627ca28734fb2893e45a4d398e142b49d40a09f60e25f3ff0",
  "id": 31023577,
  "location_subtype": "",
  "month": "2014-04"
}, {
  "category": "other-theft",
  "location_type": "Force",
  "location": {
    "latitude": "51.563863",
    "street": {
      "id": 972276,
      "name": "On or near Millfield Place"
    },
    "longitude": "-0.153353"
  },
  "context": "",
  "outcome_status": {
    "category": "Under investigation",
    "date": "2014-04"
  },
  "persistent_id": "2e3f002ddc44c118f5ae270230962e71139dc9f2aff93ea42e9e187a13c1a8cd",
  "id": 31052290,
  "location_subtype": "",
  "month": "2014-04"
}, {
  "category": "other-theft",
  "location_type": "Force",
  "location": {
    "latitude": "51.566681",
    "street": {
      "id": 972136,
      "name": "On or near Hospital"
    },
    "longitude": "-0.138175"
  },
  "context": "",
  "outcome_status": {
    "category": "Under investigation",
    "date": "2014-04"
  },
  "persistent_id": "86c3a06a45f7777bcfdd5750478a8f926e5110061dc23852ea511b7e2e8d078c",
  "id": 31023637,
  "location_subtype": "",
  "month": "2014-04"
}, {
  "category": "other-theft",
  "location_type": "Force",
  "location": {
    "latitude": "51.580593",
    "street": {
      "id": 974730,
      "name": "On or near Baker's Lane"
    },
    "longitude": "-0.154768"
  },
  "context": "",
  "outcome_status": {
    "category": "Investigation complete; no suspect identified",
    "date": "2014-04"
  },
  "persistent_id": "67417f9b3025ebac097c33fcad6c6a1c63a7d780f4abca8a0301b2d14b2f61c9",
  "id": 30994019,
  "location_subtype": "",
  "month": "2014-04"
}, {
  "category": "other-theft",
  "location_type": "Force",
  "location": {
    "latitude": "51.586279",
    "street": {
      "id": 978607,
      "name": "On or near Beaumont Close"
    },
    "longitude": "-0.164642"
  },
  "context": "",
  "outcome_status": {
    "category": "Under investigation",
    "date": "2014-04"
  },
  "persistent_id": "3d3765a16a999c73256f7014099754a5d5edc1998f577fdc76cb139ee0758ebe",
  "id": 31003329,
  "location_subtype": "",
  "month": "2014-04"
}, {
  "category": "other-theft",
  "location_type": "Force",
  "location": {
    "latitude": "51.580593",
    "street": {
      "id": 974730,
      "name": "On or near Baker's Lane"
    },
    "longitude": "-0.154768"
  },
  "context": "",
  "outcome_status": {
    "category": "Investigation complete; no suspect identified",
    "date": "2014-04"
  },
  "persistent_id": "0a80742e783bddabb394ddbb8db64a5d8da5471213c4a88099cbabcd4a987d7f",
  "id": 31002764,
  "location_subtype": "",
  "month": "2014-04"
}, {
  "category": "other-theft",
  "location_type": "Force",
  "location": {
    "latitude": "51.566681",
    "street": {
      "id": 972136,
      "name": "On or near Hospital"
    },
    "longitude": "-0.138175"
  },
  "context": "",
  "outcome_status": {
    "category": "Under investigation",
    "date": "2014-04"
  },
  "persistent_id": "eee243c526fde8f52a531d092e87534186ef7c513b868c0800ab642a02461e20",
  "id": 30968544,
  "location_subtype": "",
  "month": "2014-04"
}, {
  "category": "other-theft",
  "location_type": "Force",
  "location": {
    "latitude": "51.572858",
    "street": {
      "id": 974862,
      "name": "On or near Wembury Mews"
    },
    "longitude": "-0.139828"
  },
  "context": "",
  "outcome_status": {
    "category": "Investigation complete; no suspect identified",
    "date": "2014-05"
  },
  "persistent_id": "447b285aeab50a1dc98c6a40b1d253033b8b8e9ab1fef7a1c1a69f2f72423ec8",
  "id": 30994106,
  "location_subtype": "",
  "month": "2014-04"
}, {
  "category": "public-order",
  "location_type": "Force",
  "location": {
    "latitude": "51.564519",
    "street": {
      "id": 972108,
      "name": "On or near Raydon Street"
    },
    "longitude": "-0.142505"
  },
  "context": "",
  "outcome_status": {
    "category": "Investigation complete; no suspect identified",
    "date": "2014-05"
  },
  "persistent_id": "f2568ea727ecef6324f67a530972e6119c080bbf18fce221de60586ef469262d",
  "id": 31041726,
  "location_subtype": "",
  "month": "2014-04"
}, {
  "category": "public-order",
  "location_type": "Force",
  "location": {
    "latitude": "51.577493",
    "street": {
      "id": 974728,
      "name": "On or near Bloomfield Road"
    },
    "longitude": "-0.148615"
  },
  "context": "",
  "outcome_status": {
    "category": "Investigation complete; no suspect identified",
    "date": "2014-05"
  },
  "persistent_id": "6ac611d4235532decc9d570bddcec4d05527d6295b7b88b11e0b642958f28461",
  "id": 31044384,
  "location_subtype": "",
  "month": "2014-04"
}, {
  "category": "public-order",
  "location_type": "Force",
  "location": {
    "latitude": "51.569273",
    "street": {
      "id": 972231,
      "name": "On or near Harberton Road"
    },
    "longitude": "-0.134346"
  },
  "context": "",
  "outcome_status": {
    "category": "Under investigation",
    "date": "2014-04"
  },
  "persistent_id": "521b078e9e3219417fa8650a3cf0e440a8968d7a49d93df5242c385cad9da042",
  "id": 31002824,
  "location_subtype": "",
  "month": "2014-04"
}, {
  "category": "public-order",
  "location_type": "Force",
  "location": {
    "latitude": "51.577433",
    "street": {
      "id": 974727,
      "name": "On or near Bramalea Close"
    },
    "longitude": "-0.152226"
  },
  "context": "",
  "outcome_status": {
    "category": "Investigation complete; no suspect identified",
    "date": "2014-05"
  },
  "persistent_id": "608d6e027da55ed535b218a1ad78a038dcf2d84c649c266a3dd1cdb080911388",
  "id": 31002525,
  "location_subtype": "",
  "month": "2014-04"
}, {
  "category": "public-order",
  "location_type": "Force",
  "location": {
    "latitude": "51.566681",
    "street": {
      "id": 972136,
      "name": "On or near Hospital"
    },
    "longitude": "-0.138175"
  },
  "context": "",
  "outcome_status": {
    "category": "Awaiting court outcome",
    "date": "2014-04"
  },
  "persistent_id": "6a8b2216accd289de64832e7995deae7bc9078bee127d6007fb818142b0c9d07",
  "id": 31011194,
  "location_subtype": "",
  "month": "2014-04"
}, {
  "category": "public-order",
  "location_type": "BTP",
  "location": {
    "latitude": "51.587200",
    "street": {
      "id": 1488689,
      "name": "East Finchley"
    },
    "longitude": "-0.164847"
  },
  "context": "",
  "outcome_status": {
    "category": "Under investigation",
    "date": "2014-04"
  },
  "persistent_id": "",
  "id": 32421462,
  "location_subtype": "LU STATION",
  "month": "2014-04"
}, {
  "category": "public-order",
  "location_type": "Force",
  "location": {
    "latitude": "51.564519",
    "street": {
      "id": 972108,
      "name": "On or near Raydon Street"
    },
    "longitude": "-0.142505"
  },
  "context": "",
  "outcome_status": {
    "category": "Investigation complete; no suspect identified",
    "date": "2014-04"
  },
  "persistent_id": "dd64c489a38f20dcd0d6c1d7c9ccb4b0d2737839f43c5b0269bd3dd8bc860aac",
  "id": 30968937,
  "location_subtype": "",
  "month": "2014-04"
}, {
  "category": "public-order",
  "location_type": "Force",
  "location": {
    "latitude": "51.585830",
    "street": {
      "id": 978732,
      "name": "On or near Harford Walk"
    },
    "longitude": "-0.169294"
  },
  "context": "",
  "outcome_status": {
    "category": "Investigation complete; no suspect identified",
    "date": "2014-05"
  },
  "persistent_id": "415d8543d8b4e0b78d9cab3ca2cf74da5f428bf04862d60a94f9bcfc54db58f7",
  "id": 31050698,
  "location_subtype": "",
  "month": "2014-04"
}, {
  "category": "public-order",
  "location_type": "Force",
  "location": {
    "latitude": "51.567552",
    "street": {
      "id": 972147,
      "name": "On or near Highgate Hill"
    },
    "longitude": "-0.138659"
  },
  "context": "",
  "outcome_status": {
    "category": "Offender given a caution",
    "date": "2014-04"
  },
  "persistent_id": "c3025a529d67a1ea260fcb22d783f14e7a8e1cc33487d1a4283605ee2ee84002",
  "id": 30983762,
  "location_subtype": "",
  "month": "2014-04"
}, {
  "category": "public-order",
  "location_type": "Force",
  "location": {
    "latitude": "51.585830",
    "street": {
      "id": 978732,
      "name": "On or near Harford Walk"
    },
    "longitude": "-0.169294"
  },
  "context": "",
  "outcome_status": {
    "category": "Under investigation",
    "date": "2014-04"
  },
  "persistent_id": "415d8543d8b4e0b78d9cab3ca2cf74da5f428bf04862d60a94f9bcfc54db58f7",
  "id": 31050697,
  "location_subtype": "",
  "month": "2014-04"
}, {
  "category": "robbery",
  "location_type": "Force",
  "location": {
    "latitude": "51.584142",
    "street": {
      "id": 974715,
      "name": "On or near Onslow Gardens"
    },
    "longitude": "-0.144260"
  },
  "context": "",
  "outcome_status": {
    "category": "Investigation complete; no suspect identified",
    "date": "2014-04"
  },
  "persistent_id": "9ba7a79ee0ba77e5e6ac6b53e6e1d15a8604e46ca1c3d0fc46cc7e5f9b0b45a9",
  "id": 30976992,
  "location_subtype": "",
  "month": "2014-04"
}, {
  "category": "robbery",
  "location_type": "Force",
  "location": {
    "latitude": "51.569430",
    "street": {
      "id": 972141,
      "name": "On or near Thornbury Square"
    },
    "longitude": "-0.139737"
  },
  "context": "",
  "outcome_status": {
    "category": "Under investigation",
    "date": "2014-04"
  },
  "persistent_id": "fc9442958c1693422738bf8893c18ac557afd59eec0626606836af12e2d0a8a8",
  "id": 30999428,
  "location_subtype": "",
  "month": "2014-04"
}, {
  "category": "robbery",
  "location_type": "Force",
  "location": {
    "latitude": "51.576714",
    "street": {
      "id": 974855,
      "name": "On or near Shepherd's Close"
    },
    "longitude": "-0.141979"
  },
  "context": "",
  "outcome_status": {
    "category": "Under investigation",
    "date": "2014-04"
  },
  "persistent_id": "7c249d1dc82a94832a8ac9294de3b0c6bed6d8266dd3138813b37b56bff7b176",
  "id": 31013949,
  "location_subtype": "",
  "month": "2014-04"
}, {
  "category": "robbery",
  "location_type": "Force",
  "location": {
    "latitude": "51.585830",
    "street": {
      "id": 978732,
      "name": "On or near Harford Walk"
    },
    "longitude": "-0.169294"
  },
  "context": "",
  "outcome_status": {
    "category": "Under investigation",
    "date": "2014-04"
  },
  "persistent_id": "0b1d35cef28ea245cd489444626a7f728a78830ab50684cf60be01bf3f21a0f4",
  "id": 31022578,
  "location_subtype": "",
  "month": "2014-04"
}, {
  "category": "robbery",
  "location_type": "Force",
  "location": {
    "latitude": "51.585679",
    "street": {
      "id": 978600,
      "name": "On or near Muswell Hill Road"
    },
    "longitude": "-0.147113"
  },
  "context": "",
  "outcome_status": {
    "category": "Awaiting court outcome",
    "date": "2014-04"
  },
  "persistent_id": "51b7287f937f7f6caa43bee5f9252d98a8daa052ad8dd4a376b8d3f91ed8b6a4",
  "id": 30963662,
  "location_subtype": "",
  "month": "2014-04"
}, {
  "category": "robbery",
  "location_type": "Force",
  "location": {
    "latitude": "51.586677",
    "street": {
      "id": 978598,
      "name": "On or near Pedestrian Subway"
    },
    "longitude": "-0.147058"
  },
  "context": "",
  "outcome_status": {
    "category": "Under investigation",
    "date": "2014-04"
  },
  "persistent_id": "30de035828dbe071b27cde0bdfeaa566174ec013ec8522a1d2fdbd4130965c0f",
  "id": 31010173,
  "location_subtype": "",
  "month": "2014-04"
}, {
  "category": "theft-from-the-person",
  "location_type": "Force",
  "location": {
    "latitude": "51.567552",
    "street": {
      "id": 972147,
      "name": "On or near Highgate Hill"
    },
    "longitude": "-0.138659"
  },
  "context": "",
  "outcome_status": {
    "category": "Under investigation",
    "date": "2014-04"
  },
  "persistent_id": "323dc7ad31e7f23b9eda7335c285df7ae8d9ee57a593e2c396ac03e74b005fdd",
  "id": 31050507,
  "location_subtype": "",
  "month": "2014-04"
}, {
  "category": "theft-from-the-person",
  "location_type": "BTP",
  "location": {
    "latitude": "51.587200",
    "street": {
      "id": 1488689,
      "name": "East Finchley"
    },
    "longitude": "-0.164847"
  },
  "context": "",
  "outcome_status": {
    "category": "Under investigation",
    "date": "2014-04"
  },
  "persistent_id": "",
  "id": 32421477,
  "location_subtype": "LU STATION",
  "month": "2014-04"
}, {
  "category": "theft-from-the-person",
  "location_type": "Force",
  "location": {
    "latitude": "51.564817",
    "street": {
      "id": 972132,
      "name": "On or near Anatola Road"
    },
    "longitude": "-0.140286"
  },
  "context": "",
  "outcome_status": {
    "category": "Investigation complete; no suspect identified",
    "date": "2014-05"
  },
  "persistent_id": "bdae5852e335ec1551856e6df4e0ae8c62709a2137edc94e1a90c523a985f342",
  "id": 30994999,
  "location_subtype": "",
  "month": "2014-04"
}, {
  "category": "theft-from-the-person",
  "location_type": "Force",
  "location": {
    "latitude": "51.585564",
    "street": {
      "id": 978506,
      "name": "On or near Woodland Rise"
    },
    "longitude": "-0.143221"
  },
  "context": "",
  "outcome_status": {
    "category": "Under investigation",
    "date": "2014-04"
  },
  "persistent_id": "54be35ab8b9f8accd767689639fb62f6b392e463e902d7f8e20576aa7011d995",
  "id": 30977099,
  "location_subtype": "",
  "month": "2014-04"
}, {
  "category": "theft-from-the-person",
  "location_type": "Force",
  "location": {
    "latitude": "51.584142",
    "street": {
      "id": 974715,
      "name": "On or near Onslow Gardens"
    },
    "longitude": "-0.144260"
  },
  "context": "",
  "outcome_status": {
    "category": "Investigation complete; no suspect identified",
    "date": "2014-04"
  },
  "persistent_id": "1d66f94dcbd7e4eab9cfd8f4ef06945499cfedea265b9777b9af7b6f57f58757",
  "id": 31038180,
  "location_subtype": "",
  "month": "2014-04"
}, {
  "category": "theft-from-the-person",
  "location_type": "Force",
  "location": {
    "latitude": "51.569219",
    "street": {
      "id": 972158,
      "name": "On or near Highgate Hill"
    },
    "longitude": "-0.142270"
  },
  "context": "",
  "outcome_status": {
    "category": "Investigation complete; no suspect identified",
    "date": "2014-04"
  },
  "persistent_id": "d125270fbcc818389fa92db0640f0ac7b43ec0d3a703e6db9a08aa44d7365fc5",
  "id": 31002894,
  "location_subtype": "",
  "month": "2014-04"
}, {
  "category": "vehicle-crime",
  "location_type": "Force",
  "location": {
    "latitude": "51.585679",
    "street": {
      "id": 978600,
      "name": "On or near Muswell Hill Road"
    },
    "longitude": "-0.147113"
  },
  "context": "",
  "outcome_status": {
    "category": "Under investigation",
    "date": "2014-04"
  },
  "persistent_id": "8f6b3ccabcda9a16c13abc28d751403687a039b4d60b48200ca15d19f84966c7",
  "id": 30976981,
  "location_subtype": "",
  "month": "2014-04"
}, {
  "category": "vehicle-crime",
  "location_type": "Force",
  "location": {
    "latitude": "51.571023",
    "street": {
      "id": 972288,
      "name": "On or near Highgate High Street"
    },
    "longitude": "-0.148921"
  },
  "context": "",
  "outcome_status": {
    "category": "Investigation complete; no suspect identified",
    "date": "2014-04"
  },
  "persistent_id": "dca63c02bb7903d4125e39370da6366a704227ef99e53b9ec70e0b350b1fd127",
  "id": 30976990,
  "location_subtype": "",
  "month": "2014-04"
}, {
  "category": "vehicle-crime",
  "location_type": "Force",
  "location": {
    "latitude": "51.579185",
    "street": {
      "id": 974714,
      "name": "On or near Parkwood Mews"
    },
    "longitude": "-0.145876"
  },
  "context": "",
  "outcome_status": {
    "category": "Under investigation",
    "date": "2014-04"
  },
  "persistent_id": "c1f4ff27710e25109e284d0391400eb037f55976cd56c67309b1e6bcf1fc894c",
  "id": 31049044,
  "location_subtype": "",
  "month": "2014-04"
}, {
  "category": "vehicle-crime",
  "location_type": "Force",
  "location": {
    "latitude": "51.566814",
    "street": {
      "id": 972268,
      "name": "On or near Haversham Place"
    },
    "longitude": "-0.156278"
  },
  "context": "",
  "outcome_status": {
    "category": "Under investigation",
    "date": "2014-04"
  },
  "persistent_id": "a3d486c615d5efef2ff7de1f571da53a317cd0a53d159e6ed6ddc567faf7e745",
  "id": 30971411,
  "location_subtype": "",
  "month": "2014-04"
}, {
  "category": "vehicle-crime",
  "location_type": "Force",
  "location": {
    "latitude": "51.571433",
    "street": {
      "id": 972329,
      "name": "On or near Spaniards Close"
    },
    "longitude": "-0.175659"
  },
  "context": "",
  "outcome_status": {
    "category": "Under investigation",
    "date": "2014-04"
  },
  "persistent_id": "048bff229b339ec8de23bcd0f0c56e4e1162e2eae619180a900343ce493dd04d",
  "id": 30970925,
  "location_subtype": "",
  "month": "2014-04"
}, {
  "category": "vehicle-crime",
  "location_type": "Force",
  "location": {
    "latitude": "51.579893",
    "street": {
      "id": 974716,
      "name": "On or near North Hill Avenue"
    },
    "longitude": "-0.154248"
  },
  "context": "",
  "outcome_status": {
    "category": "Under investigation",
    "date": "2014-04"
  },
  "persistent_id": "5cdd9e486f534bf4599a1cf6de841421a83ba834546dea63bfcd79cd51c5e5cf",
  "id": 30970738,
  "location_subtype": "",
  "month": "2014-04"
}, {
  "category": "vehicle-crime",
  "location_type": "Force",
  "location": {
    "latitude": "51.571433",
    "street": {
      "id": 972329,
      "name": "On or near Spaniards Close"
    },
    "longitude": "-0.175659"
  },
  "context": "",
  "outcome_status": {
    "category": "Under investigation",
    "date": "2014-04"
  },
  "persistent_id": "65076a3d1d0f8de60a022abafc6c98264c4578cf86c265ca8c0981c60748ad90",
  "id": 31030218,
  "location_subtype": "",
  "month": "2014-04"
}, {
  "category": "vehicle-crime",
  "location_type": "Force",
  "location": {
    "latitude": "51.587623",
    "street": {
      "id": 978514,
      "name": "On or near Summerlee Gardens"
    },
    "longitude": "-0.159752"
  },
  "context": "",
  "outcome_status": {
    "category": "Under investigation",
    "date": "2014-04"
  },
  "persistent_id": "3189b479cb96306234dab2c7197b34c4c6c59e12251e4f4e6a9e5a34f19f2ed7",
  "id": 31044413,
  "location_subtype": "",
  "month": "2014-04"
}, {
  "category": "vehicle-crime",
  "location_type": "Force",
  "location": {
    "latitude": "51.572518",
    "street": {
      "id": 974871,
      "name": "On or near Cholmeley Crescent"
    },
    "longitude": "-0.144488"
  },
  "context": "",
  "outcome_status": {
    "category": "Under investigation",
    "date": "2014-04"
  },
  "persistent_id": "62522a8e0027c3f56de3eb78b9282764996bf96eefd42546575eb316306da72d",
  "id": 31002713,
  "location_subtype": "",
  "month": "2014-04"
}, {
  "category": "vehicle-crime",
  "location_type": "Force",
  "location": {
    "latitude": "51.574376",
    "street": {
      "id": 974843,
      "name": "On or near Northwood Road"
    },
    "longitude": "-0.140300"
  },
  "context": "",
  "outcome_status": {
    "category": "Investigation complete; no suspect identified",
    "date": "2014-05"
  },
  "persistent_id": "f825003b074dd130b6652773e9413433ed196cd7f6b38704575039730e898e4d",
  "id": 31048930,
  "location_subtype": "",
  "month": "2014-04"
}, {
  "category": "vehicle-crime",
  "location_type": "Force",
  "location": {
    "latitude": "51.584439",
    "street": {
      "id": 974652,
      "name": "On or near Bancroft Avenue"
    },
    "longitude": "-0.165452"
  },
  "context": "",
  "outcome_status": {
    "category": "Under investigation",
    "date": "2014-04"
  },
  "persistent_id": "bedc0a261961be5ff75c48acfd1746b622dd1f4bf7e9e088daf9f5f2a186b157",
  "id": 31020859,
  "location_subtype": "",
  "month": "2014-04"
}, {
  "category": "vehicle-crime",
  "location_type": "Force",
  "location": {
    "latitude": "51.575398",
    "street": {
      "id": 974858,
      "name": "On or near Holmesdale Road"
    },
    "longitude": "-0.141788"
  },
  "context": "",
  "outcome_status": {
    "category": "Under investigation",
    "date": "2014-04"
  },
  "persistent_id": "95d099824d61a54204cb544bd88166fc3e80c3d78eeff0ce2722c7aae499f6ba",
  "id": 30997310,
  "location_subtype": "",
  "month": "2014-04"
}, {
  "category": "vehicle-crime",
  "location_type": "Force",
  "location": {
    "latitude": "51.572769",
    "street": {
      "id": 974760,
      "name": "On or near Kingsley Place"
    },
    "longitude": "-0.147855"
  },
  "context": "",
  "outcome_status": {
    "category": "Under investigation",
    "date": "2014-04"
  },
  "persistent_id": "e6264001a3382c62a326c44c18bf882fda88affb76526999da84c41330ce12db",
  "id": 31023559,
  "location_subtype": "",
  "month": "2014-04"
}, {
  "category": "vehicle-crime",
  "location_type": "Force",
  "location": {
    "latitude": "51.568855",
    "street": {
      "id": 972290,
      "name": "On or near Highfields Grove"
    },
    "longitude": "-0.155128"
  },
  "context": "",
  "outcome_status": {
    "category": "Under investigation",
    "date": "2014-04"
  },
  "persistent_id": "b09175b69121e532e1133552696cff62fc9a5a5ba4f2cce067ceb325fda63b65",
  "id": 30988765,
  "location_subtype": "",
  "month": "2014-04"
}, {
  "category": "vehicle-crime",
  "location_type": "Force",
  "location": {
    "latitude": "51.585830",
    "street": {
      "id": 978732,
      "name": "On or near Harford Walk"
    },
    "longitude": "-0.169294"
  },
  "context": "",
  "outcome_status": {
    "category": "Under investigation",
    "date": "2014-04"
  },
  "persistent_id": "85e0ea589e4b77a4f745541d94b71221e0be21a1246e1937bb5b03096e6a6235",
  "id": 31023820,
  "location_subtype": "",
  "month": "2014-04"
}, {
  "category": "vehicle-crime",
  "location_type": "Force",
  "location": {
    "latitude": "51.584689",
    "street": {
      "id": 974860,
      "name": "On or near Connaught Gardens"
    },
    "longitude": "-0.139662"
  },
  "context": "",
  "outcome_status": {
    "category": "Under investigation",
    "date": "2014-04"
  },
  "persistent_id": "d5dcebff14a1e2d22ec8a8f5446e65bdbf54b3376b68a726f9b5f6c4dace30cf",
  "id": 31026016,
  "location_subtype": "",
  "month": "2014-04"
}, {
  "category": "vehicle-crime",
  "location_type": "Force",
  "location": {
    "latitude": "51.584689",
    "street": {
      "id": 974860,
      "name": "On or near Connaught Gardens"
    },
    "longitude": "-0.139662"
  },
  "context": "",
  "outcome_status": {
    "category": "Under investigation",
    "date": "2014-04"
  },
  "persistent_id": "90fbb93cb4bd804fd09855a6b4d391f87b533376e9a72f6de00a82e822be87ed",
  "id": 31029816,
  "location_subtype": "",
  "month": "2014-04"
}, {
  "category": "vehicle-crime",
  "location_type": "Force",
  "location": {
    "latitude": "51.578248",
    "street": {
      "id": 974707,
      "name": "On or near Talbot Road"
    },
    "longitude": "-0.151471"
  },
  "context": "",
  "outcome_status": {
    "category": "Under investigation",
    "date": "2014-04"
  },
  "persistent_id": "838800abe7211737e2698cc2ba33d9b85c2c0cbc90faa9063d8a42d9a1364ee5",
  "id": 30963782,
  "location_subtype": "",
  "month": "2014-04"
}, {
  "category": "vehicle-crime",
  "location_type": "Force",
  "location": {
    "latitude": "51.566681",
    "street": {
      "id": 972136,
      "name": "On or near Hospital"
    },
    "longitude": "-0.138175"
  },
  "context": "",
  "outcome_status": {
    "category": "Under investigation",
    "date": "2014-04"
  },
  "persistent_id": "05ff8b514b60e5a987face8fa4fbad667c400eb958412420826c8c1e3cc9d4f1",
  "id": 31029937,
  "location_subtype": "",
  "month": "2014-04"
}, {
  "category": "vehicle-crime",
  "location_type": "Force",
  "location": {
    "latitude": "51.572292",
    "street": {
      "id": 974864,
      "name": "On or near Ridings Close"
    },
    "longitude": "-0.135348"
  },
  "context": "",
  "outcome_status": {
    "category": "Under investigation",
    "date": "2014-04"
  },
  "persistent_id": "a13eb82711eeed0c34f941d49cf955ee00d0cbd6bd4dbae0945c0c4b8e0a7254",
  "id": 30968457,
  "location_subtype": "",
  "month": "2014-04"
}, {
  "category": "vehicle-crime",
  "location_type": "Force",
  "location": {
    "latitude": "51.569642",
    "street": {
      "id": 972295,
      "name": "On or near Bacon's Lane"
    },
    "longitude": "-0.149728"
  },
  "context": "",
  "outcome_status": {
    "category": "Under investigation",
    "date": "2014-04"
  },
  "persistent_id": "d8f796424d1f78601db152cead95e1ae22441381091379e7149605cbb695ddd1",
  "id": 30967463,
  "location_subtype": "",
  "month": "2014-04"
}, {
  "category": "vehicle-crime",
  "location_type": "Force",
  "location": {
    "latitude": "51.575431",
    "street": {
      "id": 974859,
      "name": "On or near Highgate Avenue"
    },
    "longitude": "-0.144427"
  },
  "context": "",
  "outcome_status": {
    "category": "Under investigation",
    "date": "2014-04"
  },
  "persistent_id": "46db4476be91075eeb18a864919a04619be23dce088135825cdbb97982b1dd66",
  "id": 30966956,
  "location_subtype": "",
  "month": "2014-04"
}, {
  "category": "vehicle-crime",
  "location_type": "Force",
  "location": {
    "latitude": "51.576627",
    "street": {
      "id": 974722,
      "name": "On or near Hillside Gardens"
    },
    "longitude": "-0.146702"
  },
  "context": "",
  "outcome_status": {
    "category": "Under investigation",
    "date": "2014-04"
  },
  "persistent_id": "d2d2ef808a123aeca21a5367c8c4c16ff75ef661255e9cf2da8618796ae0523f",
  "id": 31037996,
  "location_subtype": "",
  "month": "2014-04"
}, {
  "category": "vehicle-crime",
  "location_type": "Force",
  "location": {
    "latitude": "51.589172",
    "street": {
      "id": 978512,
      "name": "On or near Western Road"
    },
    "longitude": "-0.158174"
  },
  "context": "",
  "outcome_status": {
    "category": "Under investigation",
    "date": "2014-04"
  },
  "persistent_id": "7971f16a077b2bacea18d3f961989c92a574fad21e69008992f3a9b121298030",
  "id": 30963701,
  "location_subtype": "",
  "month": "2014-04"
}, {
  "category": "vehicle-crime",
  "location_type": "Force",
  "location": {
    "latitude": "51.569890",
    "street": {
      "id": 972232,
      "name": "On or near Gladsmuir Road"
    },
    "longitude": "-0.134696"
  },
  "context": "",
  "outcome_status": {
    "category": "Under investigation",
    "date": "2014-04"
  },
  "persistent_id": "7fbf8f538fbcd2cec64ab46524455c5004e59b22b794e57c33ee83848bd6689c",
  "id": 31052058,
  "location_subtype": "",
  "month": "2014-04"
}, {
  "category": "vehicle-crime",
  "location_type": "Force",
  "location": {
    "latitude": "51.571549",
    "street": {
      "id": 974877,
      "name": "On or near Gresley Road"
    },
    "longitude": "-0.133257"
  },
  "context": "",
  "outcome_status": {
    "category": "Under investigation",
    "date": "2014-04"
  },
  "persistent_id": "856295079425142e3255aaf61066d52f2647c87bc44018286d9fc61ddcdc7976",
  "id": 31050508,
  "location_subtype": "",
  "month": "2014-04"
}, {
  "category": "vehicle-crime",
  "location_type": "Force",
  "location": {
    "latitude": "51.574642",
    "street": {
      "id": 974709,
      "name": "On or near Southwood Lawn Road"
    },
    "longitude": "-0.146278"
  },
  "context": "",
  "outcome_status": {
    "category": "Awaiting court outcome",
    "date": "2014-04"
  },
  "persistent_id": "a1cf7bea7f3d88d9112c3e9b897cc89c8af4ccc332335f33b93bbf5e1c260862",
  "id": 31044474,
  "location_subtype": "",
  "month": "2014-04"
}, {
  "category": "vehicle-crime",
  "location_type": "Force",
  "location": {
    "latitude": "51.574758",
    "street": {
      "id": 974738,
      "name": "On or near Stormont Road"
    },
    "longitude": "-0.160517"
  },
  "context": "",
  "outcome_status": {
    "category": "Investigation complete; no suspect identified",
    "date": "2014-04"
  },
  "persistent_id": "f844d9d5c2615485c89738ed2a579c9542b3e639fb2dd8fdf05b4f0ba6f036be",
  "id": 31044417,
  "location_subtype": "",
  "month": "2014-04"
}, {
  "category": "vehicle-crime",
  "location_type": "Force",
  "location": {
    "latitude": "51.577653",
    "street": {
      "id": 974729,
      "name": "On or near Bishops Road"
    },
    "longitude": "-0.149619"
  },
  "context": "",
  "outcome_status": {
    "category": "Offender given community sentence",
    "date": "2014-05"
  },
  "persistent_id": "305d9582089b3de63cc861171db2e4f5b68a8cf9f6c7572274befadef78cd5fb",
  "id": 30997336,
  "location_subtype": "",
  "month": "2014-04"
}, {
  "category": "vehicle-crime",
  "location_type": "Force",
  "location": {
    "latitude": "51.589309",
    "street": {
      "id": 978532,
      "name": "On or near Eastern Road"
    },
    "longitude": "-0.156638"
  },
  "context": "",
  "outcome_status": {
    "category": "Under investigation",
    "date": "2014-04"
  },
  "persistent_id": "73ca30cf67ee74e970004022af1e56888306ebd4483eac81e7b5fa73ece092e1",
  "id": 31044426,
  "location_subtype": "",
  "month": "2014-04"
}, {
  "category": "vehicle-crime",
  "location_type": "Force",
  "location": {
    "latitude": "51.576570",
    "street": {
      "id": 974700,
      "name": "On or near Grange Road"
    },
    "longitude": "-0.153386"
  },
  "context": "",
  "outcome_status": {
    "category": "Under investigation",
    "date": "2014-04"
  },
  "persistent_id": "bc30bbef2250fa4e2909511fe027a1126cb00bf24614ce62eddddda366d72a2a",
  "id": 31020878,
  "location_subtype": "",
  "month": "2014-04"
}, {
  "category": "vehicle-crime",
  "location_type": "Force",
  "location": {
    "latitude": "51.589248",
    "street": {
      "id": 978528,
      "name": "On or near Francis Road"
    },
    "longitude": "-0.156135"
  },
  "context": "",
  "outcome_status": {
    "category": "Under investigation",
    "date": "2014-04"
  },
  "persistent_id": "982a6aade430348cef00b2ef3a248eb229ad681ef2f9352d6bd8a779e45f8003",
  "id": 31047056,
  "location_subtype": "",
  "month": "2014-04"
}, {
  "category": "vehicle-crime",
  "location_type": "Force",
  "location": {
    "latitude": "51.579893",
    "street": {
      "id": 974716,
      "name": "On or near North Hill Avenue"
    },
    "longitude": "-0.154248"
  },
  "context": "",
  "outcome_status": {
    "category": "Under investigation",
    "date": "2014-04"
  },
  "persistent_id": "dcb7a6729bafd3897e3e542039a583cf754e688b834ca1dafc148f1e30a811ae",
  "id": 30997325,
  "location_subtype": "",
  "month": "2014-04"
}, {
  "category": "vehicle-crime",
  "location_type": "Force",
  "location": {
    "latitude": "51.577653",
    "street": {
      "id": 974729,
      "name": "On or near Bishops Road"
    },
    "longitude": "-0.149619"
  },
  "context": "",
  "outcome_status": {
    "category": "Under investigation",
    "date": "2014-04"
  },
  "persistent_id": "d21a6b8a3923839c2b5a03959e78812383a394c36339c62551978ac69fe55b3c",
  "id": 31010226,
  "location_subtype": "",
  "month": "2014-04"
}, {
  "category": "vehicle-crime",
  "location_type": "Force",
  "location": {
    "latitude": "51.588043",
    "street": {
      "id": 978518,
      "name": "On or near Southern Road"
    },
    "longitude": "-0.157887"
  },
  "context": "",
  "outcome_status": {
    "category": "Under investigation",
    "date": "2014-04"
  },
  "persistent_id": "df962457c3c89246ee7506c55d807e2e584dfe46c6f45b67554d155eabee1e47",
  "id": 31007296,
  "location_subtype": "",
  "month": "2014-04"
}, {
  "category": "vehicle-crime",
  "location_type": "Force",
  "location": {
    "latitude": "51.584689",
    "street": {
      "id": 974860,
      "name": "On or near Connaught Gardens"
    },
    "longitude": "-0.139662"
  },
  "context": "",
  "outcome_status": {
    "category": "Under investigation",
    "date": "2014-04"
  },
  "persistent_id": "4d9d8c2c2e34d9c692b3673cffe9c2f186a4e7075f530897d6d300db0e9f0bdf",
  "id": 31006702,
  "location_subtype": "",
  "month": "2014-04"
}, {
  "category": "vehicle-crime",
  "location_type": "Force",
  "location": {
    "latitude": "51.578169",
    "street": {
      "id": 974839,
      "name": "On or near Shepherd's Hill"
    },
    "longitude": "-0.137893"
  },
  "context": "",
  "outcome_status": {
    "category": "Under investigation",
    "date": "2014-04"
  },
  "persistent_id": "eceaf52aa1b90783110330b71f8e97e14930905a1c1451cab1ac4c26766e9e6d",
  "id": 30963583,
  "location_subtype": "",
  "month": "2014-04"
}, {
  "category": "vehicle-crime",
  "location_type": "Force",
  "location": {
    "latitude": "51.588893",
    "street": {
      "id": 978582,
      "name": "On or near Birchwood Avenue"
    },
    "longitude": "-0.148484"
  },
  "context": "",
  "outcome_status": {
    "category": "Under investigation",
    "date": "2014-04"
  },
  "persistent_id": "7e627c872d8be136910e17d72d582551ed7a9212f28da5929675931fd742cbc0",
  "id": 31032523,
  "location_subtype": "",
  "month": "2014-04"
}, {
  "category": "violent-crime",
  "location_type": "Force",
  "location": {
    "latitude": "51.575655",
    "street": {
      "id": 974723,
      "name": "On or near Hillcrest"
    },
    "longitude": "-0.149527"
  },
  "context": "",
  "outcome_status": {
    "category": "Under investigation",
    "date": "2014-04"
  },
  "persistent_id": "1d24ca432bd9cf4c11957603611345523b6e94981ddbacf59e29b4e6865d90f5",
  "id": 31010123,
  "location_subtype": "",
  "month": "2014-04"
}, {
  "category": "violent-crime",
  "location_type": "Force",
  "location": {
    "latitude": "51.566564",
    "street": {
      "id": 972271,
      "name": "On or near Westhill Park"
    },
    "longitude": "-0.155278"
  },
  "context": "",
  "outcome_status": {
    "category": "Investigation complete; no suspect identified",
    "date": "2014-05"
  },
  "persistent_id": "664b7e262fe3af0da5aaeef55bd9256692b5d2571a89019492ca2b0fe5421ede",
  "id": 30999592,
  "location_subtype": "",
  "month": "2014-04"
}, {
  "category": "violent-crime",
  "location_type": "Force",
  "location": {
    "latitude": "51.582473",
    "street": {
      "id": 974658,
      "name": "On or near Norrice Lea"
    },
    "longitude": "-0.173773"
  },
  "context": "",
  "outcome_status": {
    "category": "Investigation complete; no suspect identified",
    "date": "2014-04"
  },
  "persistent_id": "274525deb3566c9d69b0f2a6ffcac618c80c6db819fac39dfd4e2e3bccf1992e",
  "id": 30978673,
  "location_subtype": "",
  "month": "2014-04"
}, {
  "category": "violent-crime",
  "location_type": "Force",
  "location": {
    "latitude": "51.572858",
    "street": {
      "id": 974862,
      "name": "On or near Wembury Mews"
    },
    "longitude": "-0.139828"
  },
  "context": "",
  "outcome_status": {
    "category": "Investigation complete; no suspect identified",
    "date": "2014-05"
  },
  "persistent_id": "d80106d47c0a267295fecb0cf51d80b46eaed3639790a1d25a2b0afdf74c89e3",
  "id": 31032105,
  "location_subtype": "",
  "month": "2014-04"
}, {
  "category": "violent-crime",
  "location_type": "Force",
  "location": {
    "latitude": "51.575655",
    "street": {
      "id": 974723,
      "name": "On or near Hillcrest"
    },
    "longitude": "-0.149527"
  },
  "context": "",
  "outcome_status": {
    "category": "Investigation complete; no suspect identified",
    "date": "2014-04"
  },
  "persistent_id": "6e3698bd195a03d0324241646bbafa268d32996ee636a7b30745470b5a80a516",
  "id": 30993945,
  "location_subtype": "",
  "month": "2014-04"
}, {
  "category": "violent-crime",
  "location_type": "Force",
  "location": {
    "latitude": "51.565757",
    "street": {
      "id": 972121,
      "name": "On or near Magdala Avenue"
    },
    "longitude": "-0.138905"
  },
  "context": "",
  "outcome_status": {
    "category": "Under investigation",
    "date": "2014-04"
  },
  "persistent_id": "e7e97641efa702fae8886a3f2c881f7eb02c3ebd6602e35d4d94b1cc98ce9248",
  "id": 31032559,
  "location_subtype": "",
  "month": "2014-04"
}, {
  "category": "violent-crime",
  "location_type": "Force",
  "location": {
    "latitude": "51.578448",
    "street": {
      "id": 974724,
      "name": "On or near Church Road"
    },
    "longitude": "-0.151607"
  },
  "context": "",
  "outcome_status": {
    "category": "Investigation complete; no suspect identified",
    "date": "2014-04"
  },
  "persistent_id": "5caa0b1a7446e6d0e9860e694cdc12e6947b5f1a41f45dabbf0620329714a6ac",
  "id": 31020857,
  "location_subtype": "",
  "month": "2014-04"
}, {
  "category": "violent-crime",
  "location_type": "Force",
  "location": {
    "latitude": "51.568243",
    "street": {
      "id": 972153,
      "name": "On or near Archway Road"
    },
    "longitude": "-0.136336"
  },
  "context": "",
  "outcome_status": {
    "category": "Investigation complete; no suspect identified",
    "date": "2014-04"
  },
  "persistent_id": "f52302ee4045adba34ede69b6bfc0b119f791c350be99045d4cdf7d9ee31abb6",
  "id": 31002861,
  "location_subtype": "",
  "month": "2014-04"
}, {
  "category": "violent-crime",
  "location_type": "Force",
  "location": {
    "latitude": "51.566681",
    "street": {
      "id": 972136,
      "name": "On or near Hospital"
    },
    "longitude": "-0.138175"
  },
  "context": "",
  "outcome_status": {
    "category": "Investigation complete; no suspect identified",
    "date": "2014-04"
  },
  "persistent_id": "2f43dcd0ce91ee22e26e987d37b3fd431ee1202fddd16342ed94ba0dacb6b057",
  "id": 30999347,
  "location_subtype": "",
  "month": "2014-04"
}, {
  "category": "violent-crime",
  "location_type": "Force",
  "location": {
    "latitude": "51.563776",
    "street": {
      "id": 972112,
      "name": "On or near Chester Road"
    },
    "longitude": "-0.143286"
  },
  "context": "",
  "outcome_status": {
    "category": "Under investigation",
    "date": "2014-04"
  },
  "persistent_id": "b770dc9443a022643187995bd7368ab101861e292c395d05053bfd495cd0a19d",
  "id": 30971510,
  "location_subtype": "",
  "month": "2014-04"
}, {
  "category": "violent-crime",
  "location_type": "Force",
  "location": {
    "latitude": "51.565757",
    "street": {
      "id": 972121,
      "name": "On or near Magdala Avenue"
    },
    "longitude": "-0.138905"
  },
  "context": "",
  "outcome_status": {
    "category": "Local resolution",
    "date": "2014-05"
  },
  "persistent_id": "e7e97641efa702fae8886a3f2c881f7eb02c3ebd6602e35d4d94b1cc98ce9248",
  "id": 31032560,
  "location_subtype": "",
  "month": "2014-04"
}, {
  "category": "violent-crime",
  "location_type": "Force",
  "location": {
    "latitude": "51.572821",
    "street": {
      "id": 974763,
      "name": "On or near Petrol Station"
    },
    "longitude": "-0.149988"
  },
  "context": "",
  "outcome_status": {
    "category": "Offender given a caution",
    "date": "2014-04"
  },
  "persistent_id": "d7b82d7a3ab1281cd20374e731e19be827b72094fbf5cc0ef7b28a30e7153ad8",
  "id": 31001029,
  "location_subtype": "",
  "month": "2014-04"
}, {
  "category": "violent-crime",
  "location_type": "Force",
  "location": {
    "latitude": "51.577172",
    "street": {
      "id": 974717,
      "name": "On or near North Hill"
    },
    "longitude": "-0.152222"
  },
  "context": "",
  "outcome_status": {
    "category": "Investigation complete; no suspect identified",
    "date": "2014-04"
  },
  "persistent_id": "07f06ec7584f518bd00877dd02d2b79b45d75f4e5b3e66eccb7544592dca916f",
  "id": 30974077,
  "location_subtype": "",
  "month": "2014-04"
}, {
  "category": "violent-crime",
  "location_type": "Force",
  "location": {
    "latitude": "51.573363",
    "street": {
      "id": 974872,
      "name": "On or near Causton Road"
    },
    "longitude": "-0.142188"
  },
  "context": "",
  "outcome_status": {
    "category": "Under investigation",
    "date": "2014-04"
  },
  "persistent_id": "0096c3a82645c1b2439df3ab2a029b3a2558c84895d13a24d8ac85fdba8de386",
  "id": 30987287,
  "location_subtype": "",
  "month": "2014-04"
}, {
  "category": "violent-crime",
  "location_type": "Force",
  "location": {
    "latitude": "51.566681",
    "street": {
      "id": 972136,
      "name": "On or near Hospital"
    },
    "longitude": "-0.138175"
  },
  "context": "",
  "outcome_status": {
    "category": "Investigation complete; no suspect identified",
    "date": "2014-04"
  },
  "persistent_id": "7062895c104815b8721e2b7977452e0cc77a0aa1542cd3bd58ce4a787e9a8e8d",
  "id": 30983140,
  "location_subtype": "",
  "month": "2014-04"
}, {
  "category": "violent-crime",
  "location_type": "Force",
  "location": {
    "latitude": "51.588043",
    "street": {
      "id": 978518,
      "name": "On or near Southern Road"
    },
    "longitude": "-0.157887"
  },
  "context": "",
  "outcome_status": {
    "category": "Under investigation",
    "date": "2014-04"
  },
  "persistent_id": "d02514f50fed06fbe534b6e24165f0de99d71c0bf97a4093fca66b5e731f6553",
  "id": 30997816,
  "location_subtype": "",
  "month": "2014-04"
}, {
  "category": "violent-crime",
  "location_type": "Force",
  "location": {
    "latitude": "51.567552",
    "street": {
      "id": 972147,
      "name": "On or near Highgate Hill"
    },
    "longitude": "-0.138659"
  },
  "context": "",
  "outcome_status": {
    "category": "Investigation complete; no suspect identified",
    "date": "2014-05"
  },
  "persistent_id": "89897bf3d9b051d50d1f861a1ab9f94f2d34d9766e0b6def002f7136dfdc19ab",
  "id": 30999605,
  "location_subtype": "",
  "month": "2014-04"
}, {
  "category": "other-crime",
  "location_type": "BTP",
  "location": {
    "latitude": "51.577700",
    "street": {
      "id": 1488698,
      "name": "Highgate"
    },
    "longitude": "-0.145833"
  },
  "context": "",
  "outcome_status": {
    "category": "Under investigation",
    "date": "2014-04"
  },
  "persistent_id": "",
  "id": 32421617,
  "location_subtype": "LU STATION",
  "month": "2014-04"
}]
