[{
  "category": "anti-social-behaviour",
  "location_type": "Force",
  "location": {
    "latitude": "51.569708",
    "street": {
      "id": 972327,
      "name": "On or near Spaniards Road"
    },
    "longitude": "-0.174011"
  },
  "context": "",
  "outcome_status": null,
  "persistent_id": "",
  "id": 29936457,
  "location_subtype": "",
  "month": "2014-02"
}, {
  "category": "anti-social-behaviour",
  "location_type": "Force",
  "location": {
    "latitude": "51.587623",
    "street": {
      "id": 978514,
      "name": "On or near Summerlee Gardens"
    },
    "longitude": "-0.159752"
  },
  "context": "",
  "outcome_status": null,
  "persistent_id": "",
  "id": 29936367,
  "location_subtype": "",
  "month": "2014-02"
}, {
  "category": "anti-social-behaviour",
  "location_type": "Force",
  "location": {
    "latitude": "51.579893",
    "street": {
      "id": 974716,
      "name": "On or near North Hill Avenue"
    },
    "longitude": "-0.154248"
  },
  "context": "",
  "outcome_status": null,
  "persistent_id": "",
  "id": 29930302,
  "location_subtype": "",
  "month": "2014-02"
}, {
  "category": "anti-social-behaviour",
  "location_type": "Force",
  "location": {
    "latitude": "51.579893",
    "street": {
      "id": 974716,
      "name": "On or near North Hill Avenue"
    },
    "longitude": "-0.154248"
  },
  "context": "",
  "outcome_status": null,
  "persistent_id": "",
  "id": 29930301,
  "location_subtype": "",
  "month": "2014-02"
}, {
  "category": "anti-social-behaviour",
  "location_type": "Force",
  "location": {
    "latitude": "51.579893",
    "street": {
      "id": 974716,
      "name": "On or near North Hill Avenue"
    },
    "longitude": "-0.154248"
  },
  "context": "",
  "outcome_status": null,
  "persistent_id": "",
  "id": 29930299,
  "location_subtype": "",
  "month": "2014-02"
}, {
  "category": "anti-social-behaviour",
  "location_type": "Force",
  "location": {
    "latitude": "51.573510",
    "street": {
      "id": 974762,
      "name": "On or near Castle Yard"
    },
    "longitude": "-0.149210"
  },
  "context": "",
  "outcome_status": null,
  "persistent_id": "",
  "id": 29930295,
  "location_subtype": "",
  "month": "2014-02"
}, {
  "category": "anti-social-behaviour",
  "location_type": "Force",
  "location": {
    "latitude": "51.586677",
    "street": {
      "id": 978598,
      "name": "On or near Pedestrian Subway"
    },
    "longitude": "-0.147058"
  },
  "context": "",
  "outcome_status": null,
  "persistent_id": "",
  "id": 29930289,
  "location_subtype": "",
  "month": "2014-02"
}, {
  "category": "anti-social-behaviour",
  "location_type": "Force",
  "location": {
    "latitude": "51.579185",
    "street": {
      "id": 974714,
      "name": "On or near Parkwood Mews"
    },
    "longitude": "-0.145876"
  },
  "context": "",
  "outcome_status": null,
  "persistent_id": "",
  "id": 29930245,
  "location_subtype": "",
  "month": "2014-02"
}, {
  "category": "anti-social-behaviour",
  "location_type": "Force",
  "location": {
    "latitude": "51.576294",
    "street": {
      "id": 974732,
      "name": "On or near Theatre\/concert Hall"
    },
    "longitude": "-0.144450"
  },
  "context": "",
  "outcome_status": null,
  "persistent_id": "",
  "id": 29930234,
  "location_subtype": "",
  "month": "2014-02"
}, {
  "category": "anti-social-behaviour",
  "location_type": "Force",
  "location": {
    "latitude": "51.576294",
    "street": {
      "id": 974732,
      "name": "On or near Theatre\/concert Hall"
    },
    "longitude": "-0.144450"
  },
  "context": "",
  "outcome_status": null,
  "persistent_id": "",
  "id": 29930232,
  "location_subtype": "",
  "month": "2014-02"
}, {
  "category": "anti-social-behaviour",
  "location_type": "Force",
  "location": {
    "latitude": "51.572858",
    "street": {
      "id": 974862,
      "name": "On or near Wembury Mews"
    },
    "longitude": "-0.139828"
  },
  "context": "",
  "outcome_status": null,
  "persistent_id": "",
  "id": 29930215,
  "location_subtype": "",
  "month": "2014-02"
}, {
  "category": "anti-social-behaviour",
  "location_type": "Force",
  "location": {
    "latitude": "51.572858",
    "street": {
      "id": 974862,
      "name": "On or near Wembury Mews"
    },
    "longitude": "-0.139828"
  },
  "context": "",
  "outcome_status": null,
  "persistent_id": "",
  "id": 29930214,
  "location_subtype": "",
  "month": "2014-02"
}, {
  "category": "anti-social-behaviour",
  "location_type": "Force",
  "location": {
    "latitude": "51.572858",
    "street": {
      "id": 974862,
      "name": "On or near Wembury Mews"
    },
    "longitude": "-0.139828"
  },
  "context": "",
  "outcome_status": null,
  "persistent_id": "",
  "id": 29930212,
  "location_subtype": "",
  "month": "2014-02"
}, {
  "category": "anti-social-behaviour",
  "location_type": "Force",
  "location": {
    "latitude": "51.574376",
    "street": {
      "id": 974843,
      "name": "On or near Northwood Road"
    },
    "longitude": "-0.140300"
  },
  "context": "",
  "outcome_status": null,
  "persistent_id": "",
  "id": 29930210,
  "location_subtype": "",
  "month": "2014-02"
}, {
  "category": "anti-social-behaviour",
  "location_type": "Force",
  "location": {
    "latitude": "51.578169",
    "street": {
      "id": 974839,
      "name": "On or near Shepherd's Hill"
    },
    "longitude": "-0.137893"
  },
  "context": "",
  "outcome_status": null,
  "persistent_id": "",
  "id": 29930205,
  "location_subtype": "",
  "month": "2014-02"
}, {
  "category": "anti-social-behaviour",
  "location_type": "Force",
  "location": {
    "latitude": "51.578169",
    "street": {
      "id": 974839,
      "name": "On or near Shepherd's Hill"
    },
    "longitude": "-0.137893"
  },
  "context": "",
  "outcome_status": null,
  "persistent_id": "",
  "id": 29930204,
  "location_subtype": "",
  "month": "2014-02"
}, {
  "category": "anti-social-behaviour",
  "location_type": "Force",
  "location": {
    "latitude": "51.574135",
    "street": {
      "id": 974845,
      "name": "On or near Milton Park"
    },
    "longitude": "-0.137596"
  },
  "context": "",
  "outcome_status": null,
  "persistent_id": "",
  "id": 29930202,
  "location_subtype": "",
  "month": "2014-02"
}, {
  "category": "anti-social-behaviour",
  "location_type": "Force",
  "location": {
    "latitude": "51.583422",
    "street": {
      "id": 974746,
      "name": "On or near Bancroft Avenue"
    },
    "longitude": "-0.163126"
  },
  "context": "",
  "outcome_status": null,
  "persistent_id": "",
  "id": 29930308,
  "location_subtype": "",
  "month": "2014-02"
}, {
  "category": "anti-social-behaviour",
  "location_type": "Force",
  "location": {
    "latitude": "51.564817",
    "street": {
      "id": 972132,
      "name": "On or near Anatola Road"
    },
    "longitude": "-0.140286"
  },
  "context": "",
  "outcome_status": null,
  "persistent_id": "",
  "id": 29943079,
  "location_subtype": "",
  "month": "2014-02"
}, {
  "category": "anti-social-behaviour",
  "location_type": "Force",
  "location": {
    "latitude": "51.565757",
    "street": {
      "id": 972121,
      "name": "On or near Magdala Avenue"
    },
    "longitude": "-0.138905"
  },
  "context": "",
  "outcome_status": null,
  "persistent_id": "",
  "id": 29943078,
  "location_subtype": "",
  "month": "2014-02"
}, {
  "category": "anti-social-behaviour",
  "location_type": "Force",
  "location": {
    "latitude": "51.586792",
    "street": {
      "id": 978606,
      "name": "On or near Brompton Grove"
    },
    "longitude": "-0.162369"
  },
  "context": "",
  "outcome_status": null,
  "persistent_id": "",
  "id": 29936374,
  "location_subtype": "",
  "month": "2014-02"
}, {
  "category": "anti-social-behaviour",
  "location_type": "Force",
  "location": {
    "latitude": "51.585564",
    "street": {
      "id": 978506,
      "name": "On or near Woodland Rise"
    },
    "longitude": "-0.143221"
  },
  "context": "",
  "outcome_status": null,
  "persistent_id": "",
  "id": 29930228,
  "location_subtype": "",
  "month": "2014-02"
}, {
  "category": "anti-social-behaviour",
  "location_type": "Force",
  "location": {
    "latitude": "51.580091",
    "street": {
      "id": 974742,
      "name": "On or near Kenwood Road"
    },
    "longitude": "-0.156000"
  },
  "context": "",
  "outcome_status": null,
  "persistent_id": "",
  "id": 29930304,
  "location_subtype": "",
  "month": "2014-02"
}, {
  "category": "anti-social-behaviour",
  "location_type": "Force",
  "location": {
    "latitude": "51.565757",
    "street": {
      "id": 972121,
      "name": "On or near Magdala Avenue"
    },
    "longitude": "-0.138905"
  },
  "context": "",
  "outcome_status": null,
  "persistent_id": "",
  "id": 29943076,
  "location_subtype": "",
  "month": "2014-02"
}, {
  "category": "anti-social-behaviour",
  "location_type": "Force",
  "location": {
    "latitude": "51.569890",
    "street": {
      "id": 972232,
      "name": "On or near Gladsmuir Road"
    },
    "longitude": "-0.134696"
  },
  "context": "",
  "outcome_status": null,
  "persistent_id": "",
  "id": 29943047,
  "location_subtype": "",
  "month": "2014-02"
}, {
  "category": "anti-social-behaviour",
  "location_type": "Force",
  "location": {
    "latitude": "51.568062",
    "street": {
      "id": 972150,
      "name": "On or near Despard Road"
    },
    "longitude": "-0.137946"
  },
  "context": "",
  "outcome_status": null,
  "persistent_id": "",
  "id": 29943074,
  "location_subtype": "",
  "month": "2014-02"
}, {
  "category": "anti-social-behaviour",
  "location_type": "Force",
  "location": {
    "latitude": "51.564519",
    "street": {
      "id": 972108,
      "name": "On or near Raydon Street"
    },
    "longitude": "-0.142505"
  },
  "context": "",
  "outcome_status": null,
  "persistent_id": "",
  "id": 29953722,
  "location_subtype": "",
  "month": "2014-02"
}, {
  "category": "anti-social-behaviour",
  "location_type": "Force",
  "location": {
    "latitude": "51.572701",
    "street": {
      "id": 974755,
      "name": "On or near Hampstead Lane"
    },
    "longitude": "-0.165261"
  },
  "context": "",
  "outcome_status": null,
  "persistent_id": "",
  "id": 29954658,
  "location_subtype": "",
  "month": "2014-02"
}, {
  "category": "anti-social-behaviour",
  "location_type": "Force",
  "location": {
    "latitude": "51.566313",
    "street": {
      "id": 972281,
      "name": "On or near Highgate West Hill"
    },
    "longitude": "-0.153614"
  },
  "context": "",
  "outcome_status": null,
  "persistent_id": "",
  "id": 29953843,
  "location_subtype": "",
  "month": "2014-02"
}, {
  "category": "anti-social-behaviour",
  "location_type": "Force",
  "location": {
    "latitude": "51.570569",
    "street": {
      "id": 972293,
      "name": "On or near Broadbent Close"
    },
    "longitude": "-0.146342"
  },
  "context": "",
  "outcome_status": null,
  "persistent_id": "",
  "id": 29953808,
  "location_subtype": "",
  "month": "2014-02"
}, {
  "category": "anti-social-behaviour",
  "location_type": "Force",
  "location": {
    "latitude": "51.564519",
    "street": {
      "id": 972108,
      "name": "On or near Raydon Street"
    },
    "longitude": "-0.142505"
  },
  "context": "",
  "outcome_status": null,
  "persistent_id": "",
  "id": 29953738,
  "location_subtype": "",
  "month": "2014-02"
}, {
  "category": "anti-social-behaviour",
  "location_type": "Force",
  "location": {
    "latitude": "51.569219",
    "street": {
      "id": 972158,
      "name": "On or near Highgate Hill"
    },
    "longitude": "-0.142270"
  },
  "context": "",
  "outcome_status": null,
  "persistent_id": "",
  "id": 29953736,
  "location_subtype": "",
  "month": "2014-02"
}, {
  "category": "anti-social-behaviour",
  "location_type": "Force",
  "location": {
    "latitude": "51.569219",
    "street": {
      "id": 972158,
      "name": "On or near Highgate Hill"
    },
    "longitude": "-0.142270"
  },
  "context": "",
  "outcome_status": null,
  "persistent_id": "",
  "id": 29953734,
  "location_subtype": "",
  "month": "2014-02"
}, {
  "category": "anti-social-behaviour",
  "location_type": "Force",
  "location": {
    "latitude": "51.569219",
    "street": {
      "id": 972158,
      "name": "On or near Highgate Hill"
    },
    "longitude": "-0.142270"
  },
  "context": "",
  "outcome_status": null,
  "persistent_id": "",
  "id": 29953732,
  "location_subtype": "",
  "month": "2014-02"
}, {
  "category": "anti-social-behaviour",
  "location_type": "Force",
  "location": {
    "latitude": "51.569219",
    "street": {
      "id": 972158,
      "name": "On or near Highgate Hill"
    },
    "longitude": "-0.142270"
  },
  "context": "",
  "outcome_status": null,
  "persistent_id": "",
  "id": 29953731,
  "location_subtype": "",
  "month": "2014-02"
}, {
  "category": "anti-social-behaviour",
  "location_type": "Force",
  "location": {
    "latitude": "51.569219",
    "street": {
      "id": 972158,
      "name": "On or near Highgate Hill"
    },
    "longitude": "-0.142270"
  },
  "context": "",
  "outcome_status": null,
  "persistent_id": "",
  "id": 29953729,
  "location_subtype": "",
  "month": "2014-02"
}, {
  "category": "anti-social-behaviour",
  "location_type": "Force",
  "location": {
    "latitude": "51.569219",
    "street": {
      "id": 972158,
      "name": "On or near Highgate Hill"
    },
    "longitude": "-0.142270"
  },
  "context": "",
  "outcome_status": null,
  "persistent_id": "",
  "id": 29953728,
  "location_subtype": "",
  "month": "2014-02"
}, {
  "category": "anti-social-behaviour",
  "location_type": "Force",
  "location": {
    "latitude": "51.569219",
    "street": {
      "id": 972158,
      "name": "On or near Highgate Hill"
    },
    "longitude": "-0.142270"
  },
  "context": "",
  "outcome_status": null,
  "persistent_id": "",
  "id": 29953726,
  "location_subtype": "",
  "month": "2014-02"
}, {
  "category": "anti-social-behaviour",
  "location_type": "Force",
  "location": {
    "latitude": "51.571549",
    "street": {
      "id": 974877,
      "name": "On or near Gresley Road"
    },
    "longitude": "-0.133257"
  },
  "context": "",
  "outcome_status": null,
  "persistent_id": "",
  "id": 29943048,
  "location_subtype": "",
  "month": "2014-02"
}, {
  "category": "anti-social-behaviour",
  "location_type": "Force",
  "location": {
    "latitude": "51.572185",
    "street": {
      "id": 974879,
      "name": "On or near Ashmount Road"
    },
    "longitude": "-0.132539"
  },
  "context": "",
  "outcome_status": null,
  "persistent_id": "",
  "id": 29943038,
  "location_subtype": "",
  "month": "2014-02"
}, {
  "category": "anti-social-behaviour",
  "location_type": "Force",
  "location": {
    "latitude": "51.572185",
    "street": {
      "id": 974879,
      "name": "On or near Ashmount Road"
    },
    "longitude": "-0.132539"
  },
  "context": "",
  "outcome_status": null,
  "persistent_id": "",
  "id": 29943036,
  "location_subtype": "",
  "month": "2014-02"
}, {
  "category": "anti-social-behaviour",
  "location_type": "Force",
  "location": {
    "latitude": "51.564817",
    "street": {
      "id": 972132,
      "name": "On or near Anatola Road"
    },
    "longitude": "-0.140286"
  },
  "context": "",
  "outcome_status": null,
  "persistent_id": "",
  "id": 29943094,
  "location_subtype": "",
  "month": "2014-02"
}, {
  "category": "anti-social-behaviour",
  "location_type": "Force",
  "location": {
    "latitude": "51.564817",
    "street": {
      "id": 972132,
      "name": "On or near Anatola Road"
    },
    "longitude": "-0.140286"
  },
  "context": "",
  "outcome_status": null,
  "persistent_id": "",
  "id": 29943092,
  "location_subtype": "",
  "month": "2014-02"
}, {
  "category": "anti-social-behaviour",
  "location_type": "Force",
  "location": {
    "latitude": "51.567552",
    "street": {
      "id": 972147,
      "name": "On or near Highgate Hill"
    },
    "longitude": "-0.138659"
  },
  "context": "",
  "outcome_status": null,
  "persistent_id": "",
  "id": 29943086,
  "location_subtype": "",
  "month": "2014-02"
}, {
  "category": "anti-social-behaviour",
  "location_type": "Force",
  "location": {
    "latitude": "51.567552",
    "street": {
      "id": 972147,
      "name": "On or near Highgate Hill"
    },
    "longitude": "-0.138659"
  },
  "context": "",
  "outcome_status": null,
  "persistent_id": "",
  "id": 29943084,
  "location_subtype": "",
  "month": "2014-02"
}, {
  "category": "anti-social-behaviour",
  "location_type": "Force",
  "location": {
    "latitude": "51.567552",
    "street": {
      "id": 972147,
      "name": "On or near Highgate Hill"
    },
    "longitude": "-0.138659"
  },
  "context": "",
  "outcome_status": null,
  "persistent_id": "",
  "id": 29943083,
  "location_subtype": "",
  "month": "2014-02"
}, {
  "category": "anti-social-behaviour",
  "location_type": "Force",
  "location": {
    "latitude": "51.567552",
    "street": {
      "id": 972147,
      "name": "On or near Highgate Hill"
    },
    "longitude": "-0.138659"
  },
  "context": "",
  "outcome_status": null,
  "persistent_id": "",
  "id": 29943081,
  "location_subtype": "",
  "month": "2014-02"
}, {
  "category": "bicycle-theft",
  "location_type": "Force",
  "location": {
    "latitude": "51.563058",
    "street": {
      "id": 972283,
      "name": "On or near Bromwich Avenue"
    },
    "longitude": "-0.147903"
  },
  "context": "",
  "outcome_status": {
    "category": "Investigation complete; no suspect identified",
    "date": "2014-05"
  },
  "persistent_id": "bc530e57ba848d4a5eb7305ba943bdb718b0304fbafb6aaaaf4559bd6f29c514",
  "id": 29870127,
  "location_subtype": "",
  "month": "2014-02"
}, {
  "category": "bicycle-theft",
  "location_type": "Force",
  "location": {
    "latitude": "51.585679",
    "street": {
      "id": 978600,
      "name": "On or near Muswell Hill Road"
    },
    "longitude": "-0.147113"
  },
  "context": "",
  "outcome_status": {
    "category": "Under investigation",
    "date": "2014-02"
  },
  "persistent_id": "b836e219e4b83134fb02957106c0387f48b37e0be1fc336499c06c2fd622f29e",
  "id": 29920580,
  "location_subtype": "",
  "month": "2014-02"
}, {
  "category": "bicycle-theft",
  "location_type": "Force",
  "location": {
    "latitude": "51.564624",
    "street": {
      "id": 972277,
      "name": "On or near Makepeace Avenue"
    },
    "longitude": "-0.149686"
  },
  "context": "",
  "outcome_status": {
    "category": "Under investigation",
    "date": "2014-02"
  },
  "persistent_id": "e1eab9e09a6dbf6c5a715f8c42303cb3f210ffdb3259229b25b6e75d50275359",
  "id": 29854118,
  "location_subtype": "",
  "month": "2014-02"
}, {
  "category": "burglary",
  "location_type": "Force",
  "location": {
    "latitude": "51.584689",
    "street": {
      "id": 974860,
      "name": "On or near Connaught Gardens"
    },
    "longitude": "-0.139662"
  },
  "context": "",
  "outcome_status": {
    "category": "Under investigation",
    "date": "2014-02"
  },
  "persistent_id": "51f6b5570028c704698bb1156f064bd9fa224941a0fe1857f5afda626c9b3c88",
  "id": 29906490,
  "location_subtype": "",
  "month": "2014-02"
}, {
  "category": "burglary",
  "location_type": "Force",
  "location": {
    "latitude": "51.584142",
    "street": {
      "id": 974715,
      "name": "On or near Onslow Gardens"
    },
    "longitude": "-0.144260"
  },
  "context": "",
  "outcome_status": {
    "category": "Under investigation",
    "date": "2014-02"
  },
  "persistent_id": "679c68d7f6062eb3fa3197d264cc355aadd6d0ea891150fc94e26b8abac1c55d",
  "id": 29914319,
  "location_subtype": "",
  "month": "2014-02"
}, {
  "category": "burglary",
  "location_type": "Force",
  "location": {
    "latitude": "51.580602",
    "street": {
      "id": 974736,
      "name": "On or near Toyne Way"
    },
    "longitude": "-0.156471"
  },
  "context": "",
  "outcome_status": {
    "category": "Investigation complete; no suspect identified",
    "date": "2014-03"
  },
  "persistent_id": "e61c5989e65125d388ce13b3ba9dd74121bdaf7ed9fb3335986a7ce35bce35f3",
  "id": 29899334,
  "location_subtype": "",
  "month": "2014-02"
}, {
  "category": "burglary",
  "location_type": "Force",
  "location": {
    "latitude": "51.582028",
    "street": {
      "id": 974747,
      "name": "On or near Aylmer Road"
    },
    "longitude": "-0.161364"
  },
  "context": "",
  "outcome_status": {
    "category": "Investigation complete; no suspect identified",
    "date": "2014-03"
  },
  "persistent_id": "921899c459d0e328ca20c56cb2468b61c6256b82259a609803279b8af774b18f",
  "id": 29905367,
  "location_subtype": "",
  "month": "2014-02"
}, {
  "category": "burglary",
  "location_type": "Force",
  "location": {
    "latitude": "51.568243",
    "street": {
      "id": 972153,
      "name": "On or near Archway Road"
    },
    "longitude": "-0.136336"
  },
  "context": "",
  "outcome_status": {
    "category": "Investigation complete; no suspect identified",
    "date": "2014-02"
  },
  "persistent_id": "7e97cc365a474b4a8905d03439836aa05c7fb5747ddd732c9166133b6268f270",
  "id": 29894151,
  "location_subtype": "",
  "month": "2014-02"
}, {
  "category": "burglary",
  "location_type": "Force",
  "location": {
    "latitude": "51.563863",
    "street": {
      "id": 972276,
      "name": "On or near Millfield Place"
    },
    "longitude": "-0.153353"
  },
  "context": "",
  "outcome_status": {
    "category": "Investigation complete; no suspect identified",
    "date": "2014-02"
  },
  "persistent_id": "36c9f9bbcbf734d35f1450220356323cbea25230e913c78465f93d57c5281bc8",
  "id": 29894128,
  "location_subtype": "",
  "month": "2014-02"
}, {
  "category": "burglary",
  "location_type": "Force",
  "location": {
    "latitude": "51.582755",
    "street": {
      "id": 974737,
      "name": "On or near Sussex Gardens"
    },
    "longitude": "-0.157827"
  },
  "context": "",
  "outcome_status": {
    "category": "Investigation complete; no suspect identified",
    "date": "2014-03"
  },
  "persistent_id": "7b1ed7f8a657791ca5a4931abf828c2f558800447b88a2f4e4eba06ab2c25914",
  "id": 29849978,
  "location_subtype": "",
  "month": "2014-02"
}, {
  "category": "burglary",
  "location_type": "Force",
  "location": {
    "latitude": "51.568823",
    "street": {
      "id": 972284,
      "name": "On or near Witanhurst Lane"
    },
    "longitude": "-0.151377"
  },
  "context": "",
  "outcome_status": {
    "category": "Investigation complete; no suspect identified",
    "date": "2014-02"
  },
  "persistent_id": "33bbea4438c356a2314632c8e896826543c6172653694a99eafc3188d4943f18",
  "id": 29861608,
  "location_subtype": "",
  "month": "2014-02"
}, {
  "category": "burglary",
  "location_type": "Force",
  "location": {
    "latitude": "51.570690",
    "street": {
      "id": 972297,
      "name": "On or near Sports\/recreation Area"
    },
    "longitude": "-0.146049"
  },
  "context": "",
  "outcome_status": {
    "category": "Investigation complete; no suspect identified",
    "date": "2014-03"
  },
  "persistent_id": "bce4d0acea1ebf7f6914b2d0d5907ec54e1f9614756ad1daa04228e1330d38ec",
  "id": 29883492,
  "location_subtype": "",
  "month": "2014-02"
}, {
  "category": "burglary",
  "location_type": "Force",
  "location": {
    "latitude": "51.584439",
    "street": {
      "id": 974652,
      "name": "On or near Bancroft Avenue"
    },
    "longitude": "-0.165452"
  },
  "context": "",
  "outcome_status": {
    "category": "Investigation complete; no suspect identified",
    "date": "2014-03"
  },
  "persistent_id": "9932d30810a7ddd8209036be5a4f7180943a5fcd24932bf6379323bebe015685",
  "id": 29885640,
  "location_subtype": "",
  "month": "2014-02"
}, {
  "category": "burglary",
  "location_type": "Force",
  "location": {
    "latitude": "51.570647",
    "street": {
      "id": 972289,
      "name": "On or near Highgate High Street"
    },
    "longitude": "-0.147277"
  },
  "context": "",
  "outcome_status": {
    "category": "Under investigation",
    "date": "2014-02"
  },
  "persistent_id": "8a5b0f85abc372f7334ea12f6d006fa3e4bb1dd7a500754bb2b7dd9adf2319d8",
  "id": 29837632,
  "location_subtype": "",
  "month": "2014-02"
}, {
  "category": "burglary",
  "location_type": "Force",
  "location": {
    "latitude": "51.576714",
    "street": {
      "id": 974855,
      "name": "On or near Shepherd's Close"
    },
    "longitude": "-0.141979"
  },
  "context": "",
  "outcome_status": {
    "category": "Under investigation",
    "date": "2014-02"
  },
  "persistent_id": "a1cf4163cb05d7d6874775ad609e9af3f9da6d875cf8562e55833379c137b98b",
  "id": 29850229,
  "location_subtype": "",
  "month": "2014-02"
}, {
  "category": "burglary",
  "location_type": "Force",
  "location": {
    "latitude": "51.567552",
    "street": {
      "id": 972147,
      "name": "On or near Highgate Hill"
    },
    "longitude": "-0.138659"
  },
  "context": "",
  "outcome_status": {
    "category": "Investigation complete; no suspect identified",
    "date": "2014-02"
  },
  "persistent_id": "e5968dabbdf8519230d4ce9a600edeef4bf34b086ab3e7c3a376cd2ef2e2458b",
  "id": 29898251,
  "location_subtype": "",
  "month": "2014-02"
}, {
  "category": "burglary",
  "location_type": "Force",
  "location": {
    "latitude": "51.564519",
    "street": {
      "id": 972108,
      "name": "On or near Raydon Street"
    },
    "longitude": "-0.142505"
  },
  "context": "",
  "outcome_status": {
    "category": "Investigation complete; no suspect identified",
    "date": "2014-04"
  },
  "persistent_id": "efff3d6d1991c106c5341cc37fd053f7eea44301a12c5d8f636e67598dec4e2e",
  "id": 29842663,
  "location_subtype": "",
  "month": "2014-02"
}, {
  "category": "burglary",
  "location_type": "Force",
  "location": {
    "latitude": "51.586677",
    "street": {
      "id": 978598,
      "name": "On or near Pedestrian Subway"
    },
    "longitude": "-0.147058"
  },
  "context": "",
  "outcome_status": {
    "category": "Under investigation",
    "date": "2014-02"
  },
  "persistent_id": "c99cdc84d6d31e2b3de185be355c7b49fab29505d9aeaee74c92735dc09c740c",
  "id": 29904301,
  "location_subtype": "",
  "month": "2014-02"
}, {
  "category": "burglary",
  "location_type": "Force",
  "location": {
    "latitude": "51.584113",
    "street": {
      "id": 974720,
      "name": "On or near Lanchester Road"
    },
    "longitude": "-0.154394"
  },
  "context": "",
  "outcome_status": {
    "category": "Under investigation",
    "date": "2014-02"
  },
  "persistent_id": "c59e0f8ab76d947b825982f1426e02900b30977b60ad411912f17b90d0514bd1",
  "id": 29844167,
  "location_subtype": "",
  "month": "2014-02"
}, {
  "category": "burglary",
  "location_type": "Force",
  "location": {
    "latitude": "51.567301",
    "street": {
      "id": 972124,
      "name": "On or near Highgate Hill"
    },
    "longitude": "-0.137010"
  },
  "context": "",
  "outcome_status": {
    "category": "Awaiting court outcome",
    "date": "2014-02"
  },
  "persistent_id": "abf846340fe6ad0e30caafcbbd24241d399d4ca4cc7d1062bbefc00a889b05f9",
  "id": 29845171,
  "location_subtype": "",
  "month": "2014-02"
}, {
  "category": "burglary",
  "location_type": "Force",
  "location": {
    "latitude": "51.572769",
    "street": {
      "id": 974760,
      "name": "On or near Kingsley Place"
    },
    "longitude": "-0.147855"
  },
  "context": "",
  "outcome_status": {
    "category": "Under investigation",
    "date": "2014-02"
  },
  "persistent_id": "5408da657071dc1e5171a1f989e687f4361a8e3590aadf1c1f77faff8229f4a3",
  "id": 29924270,
  "location_subtype": "",
  "month": "2014-02"
}, {
  "category": "burglary",
  "location_type": "Force",
  "location": {
    "latitude": "51.575180",
    "street": {
      "id": 974712,
      "name": "On or near Southwood Avenue"
    },
    "longitude": "-0.145058"
  },
  "context": "",
  "outcome_status": {
    "category": "Under investigation",
    "date": "2014-02"
  },
  "persistent_id": "9bc67cd3b2405ccd8ebd88309d0618da3f3b115b4d71c55110667c4725a766be",
  "id": 29852128,
  "location_subtype": "",
  "month": "2014-02"
}, {
  "category": "burglary",
  "location_type": "Force",
  "location": {
    "latitude": "51.572221",
    "street": {
      "id": 974761,
      "name": "On or near Highgate Close"
    },
    "longitude": "-0.152437"
  },
  "context": "",
  "outcome_status": {
    "category": "Under investigation",
    "date": "2014-02"
  },
  "persistent_id": "88f726a7c844fbfe48f4ac9a04301b25e4262be16c8e2bdca58428933c2f13fc",
  "id": 29852131,
  "location_subtype": "",
  "month": "2014-02"
}, {
  "category": "burglary",
  "location_type": "Force",
  "location": {
    "latitude": "51.585564",
    "street": {
      "id": 978506,
      "name": "On or near Woodland Rise"
    },
    "longitude": "-0.143221"
  },
  "context": "",
  "outcome_status": {
    "category": "Under investigation",
    "date": "2014-02"
  },
  "persistent_id": "9ec702436432f7109248f67206413d899b3f2e6997b7e379f551e65b8d9e455e",
  "id": 29888110,
  "location_subtype": "",
  "month": "2014-02"
}, {
  "category": "burglary",
  "location_type": "Force",
  "location": {
    "latitude": "51.569273",
    "street": {
      "id": 972231,
      "name": "On or near Harberton Road"
    },
    "longitude": "-0.134346"
  },
  "context": "",
  "outcome_status": {
    "category": "Under investigation",
    "date": "2014-02"
  },
  "persistent_id": "4393aca744184c2395d1325c579f473b900af097f5149dc70914a3a02e48358c",
  "id": 29923083,
  "location_subtype": "",
  "month": "2014-02"
}, {
  "category": "burglary",
  "location_type": "Force",
  "location": {
    "latitude": "51.571657",
    "street": {
      "id": 972286,
      "name": "On or near The Grove"
    },
    "longitude": "-0.151479"
  },
  "context": "",
  "outcome_status": {
    "category": "Investigation complete; no suspect identified",
    "date": "2014-02"
  },
  "persistent_id": "46d203b0e06cb496bfd5acad09832c8d34b74781b89529b6ed018b23c1f57c05",
  "id": 29921452,
  "location_subtype": "",
  "month": "2014-02"
}, {
  "category": "burglary",
  "location_type": "Force",
  "location": {
    "latitude": "51.579260",
    "street": {
      "id": 974744,
      "name": "On or near Gaskell Road"
    },
    "longitude": "-0.156323"
  },
  "context": "",
  "outcome_status": {
    "category": "Under investigation",
    "date": "2014-02"
  },
  "persistent_id": "ae77e6101f8e898a0f19c1225150c7ab1c547a90244070e341f9619335808e7c",
  "id": 29895378,
  "location_subtype": "",
  "month": "2014-02"
}, {
  "category": "burglary",
  "location_type": "Force",
  "location": {
    "latitude": "51.572185",
    "street": {
      "id": 974879,
      "name": "On or near Ashmount Road"
    },
    "longitude": "-0.132539"
  },
  "context": "",
  "outcome_status": {
    "category": "Under investigation",
    "date": "2014-02"
  },
  "persistent_id": "ab8fe4ce1f7875249e82caa3073e487c9fec35e66cf9c2e39d4fa93e0c9ad24e",
  "id": 29896997,
  "location_subtype": "",
  "month": "2014-02"
}, {
  "category": "burglary",
  "location_type": "Force",
  "location": {
    "latitude": "51.575535",
    "street": {
      "id": 974847,
      "name": "On or near Claremont Road"
    },
    "longitude": "-0.137972"
  },
  "context": "",
  "outcome_status": {
    "category": "Under investigation",
    "date": "2014-02"
  },
  "persistent_id": "2c08f85fc6d8e08d52b91d3e78c9d7183acf433e2b4cdf46e3c123714a254060",
  "id": 29920819,
  "location_subtype": "",
  "month": "2014-02"
}, {
  "category": "burglary",
  "location_type": "Force",
  "location": {
    "latitude": "51.566681",
    "street": {
      "id": 972136,
      "name": "On or near Hospital"
    },
    "longitude": "-0.138175"
  },
  "context": "",
  "outcome_status": {
    "category": "Under investigation",
    "date": "2014-02"
  },
  "persistent_id": "133a9db239c446fbb9d30c071db0b91efac126377ccf066030cccf192acc71e8",
  "id": 29900173,
  "location_subtype": "",
  "month": "2014-02"
}, {
  "category": "burglary",
  "location_type": "Force",
  "location": {
    "latitude": "51.578248",
    "street": {
      "id": 974707,
      "name": "On or near Talbot Road"
    },
    "longitude": "-0.151471"
  },
  "context": "",
  "outcome_status": {
    "category": "Under investigation",
    "date": "2014-02"
  },
  "persistent_id": "07ea641a6a050725c9d181e0ba0808a96dab0e7b49e2d4dc4568829a1bbb262b",
  "id": 29904511,
  "location_subtype": "",
  "month": "2014-02"
}, {
  "category": "burglary",
  "location_type": "Force",
  "location": {
    "latitude": "51.570931",
    "street": {
      "id": 972291,
      "name": "On or near Dukes Point"
    },
    "longitude": "-0.145375"
  },
  "context": "",
  "outcome_status": {
    "category": "Investigation complete; no suspect identified",
    "date": "2014-04"
  },
  "persistent_id": "04e163e09edff746e7ab2a5ad0846105937ffd063df2b7f170128424480455ac",
  "id": 29861722,
  "location_subtype": "",
  "month": "2014-02"
}, {
  "category": "burglary",
  "location_type": "Force",
  "location": {
    "latitude": "51.563058",
    "street": {
      "id": 972283,
      "name": "On or near Bromwich Avenue"
    },
    "longitude": "-0.147903"
  },
  "context": "",
  "outcome_status": {
    "category": "Under investigation",
    "date": "2014-02"
  },
  "persistent_id": "91530659527107912ec0adb119c9ecf0ef318f779ba48440a0fae65a37d605a2",
  "id": 29924979,
  "location_subtype": "",
  "month": "2014-02"
}, {
  "category": "burglary",
  "location_type": "Force",
  "location": {
    "latitude": "51.566564",
    "street": {
      "id": 972271,
      "name": "On or near Westhill Park"
    },
    "longitude": "-0.155278"
  },
  "context": "",
  "outcome_status": {
    "category": "Under investigation",
    "date": "2014-02"
  },
  "persistent_id": "dd9bc852adcb8cc2c5813ee44666291e2ac80c98134236e02304eddd6ba187ff",
  "id": 29871263,
  "location_subtype": "",
  "month": "2014-02"
}, {
  "category": "burglary",
  "location_type": "Force",
  "location": {
    "latitude": "51.584142",
    "street": {
      "id": 974715,
      "name": "On or near Onslow Gardens"
    },
    "longitude": "-0.144260"
  },
  "context": "",
  "outcome_status": {
    "category": "Under investigation",
    "date": "2014-02"
  },
  "persistent_id": "3c6a90b1178b1dace64596d28b884f159e82c2419dd468677b5b97322a374abe",
  "id": 29883624,
  "location_subtype": "",
  "month": "2014-02"
}, {
  "category": "criminal-damage-arson",
  "location_type": "Force",
  "location": {
    "latitude": "51.586677",
    "street": {
      "id": 978598,
      "name": "On or near Pedestrian Subway"
    },
    "longitude": "-0.147058"
  },
  "context": "",
  "outcome_status": {
    "category": "Under investigation",
    "date": "2014-02"
  },
  "persistent_id": "880373f2a62298b7c3563074e1ad7608eb5769e3e6a3a60431aa3ef50900a342",
  "id": 29854450,
  "location_subtype": "",
  "month": "2014-02"
}, {
  "category": "criminal-damage-arson",
  "location_type": "Force",
  "location": {
    "latitude": "51.574135",
    "street": {
      "id": 974845,
      "name": "On or near Milton Park"
    },
    "longitude": "-0.137596"
  },
  "context": "",
  "outcome_status": {
    "category": "Offender given a caution",
    "date": "2014-02"
  },
  "persistent_id": "c62c30b9ed92782fddc31f6cb12b1ff316a654d69da37845879f381bdb1d8e42",
  "id": 29920734,
  "location_subtype": "",
  "month": "2014-02"
}, {
  "category": "criminal-damage-arson",
  "location_type": "Force",
  "location": {
    "latitude": "51.575195",
    "street": {
      "id": 974667,
      "name": "On or near Canons Close"
    },
    "longitude": "-0.170096"
  },
  "context": "",
  "outcome_status": {
    "category": "Under investigation",
    "date": "2014-02"
  },
  "persistent_id": "ef5a49716b0b6ca4463d33a862b22161c495c6d203de5ac0e39b8cc103f90b4a",
  "id": 29916680,
  "location_subtype": "",
  "month": "2014-02"
}, {
  "category": "criminal-damage-arson",
  "location_type": "Force",
  "location": {
    "latitude": "51.566681",
    "street": {
      "id": 972136,
      "name": "On or near Hospital"
    },
    "longitude": "-0.138175"
  },
  "context": "",
  "outcome_status": {
    "category": "Offender given community sentence",
    "date": "2014-04"
  },
  "persistent_id": "2e003a561a4493852c02e13e548a7788c2feb73ffc7f3ad150428f4360659b93",
  "id": 29867894,
  "location_subtype": "",
  "month": "2014-02"
}, {
  "category": "criminal-damage-arson",
  "location_type": "Force",
  "location": {
    "latitude": "51.572858",
    "street": {
      "id": 974862,
      "name": "On or near Wembury Mews"
    },
    "longitude": "-0.139828"
  },
  "context": "",
  "outcome_status": {
    "category": "Investigation complete; no suspect identified",
    "date": "2014-03"
  },
  "persistent_id": "b94388411fbbe1768b37f4ff653ddcacda6086eaac12be15728fd9c7874e2282",
  "id": 29925583,
  "location_subtype": "",
  "month": "2014-02"
}, {
  "category": "criminal-damage-arson",
  "location_type": "Force",
  "location": {
    "latitude": "51.573595",
    "street": {
      "id": 974846,
      "name": "On or near Milton Avenue"
    },
    "longitude": "-0.138138"
  },
  "context": "",
  "outcome_status": {
    "category": "Under investigation",
    "date": "2014-02"
  },
  "persistent_id": "9d3d20125cca893784dbccc212a2ee9d4e3d6929e61cf8a31c78cfa06624bf99",
  "id": 29902275,
  "location_subtype": "",
  "month": "2014-02"
}, {
  "category": "criminal-damage-arson",
  "location_type": "Force",
  "location": {
    "latitude": "51.563968",
    "street": {
      "id": 972115,
      "name": "On or near Balmore Street"
    },
    "longitude": "-0.142311"
  },
  "context": "",
  "outcome_status": {
    "category": "Under investigation",
    "date": "2014-02"
  },
  "persistent_id": "1c312faba4335b4abcc1431685a3c0c1614521f0c5825e14433df74e8612ae0d",
  "id": 29910102,
  "location_subtype": "",
  "month": "2014-02"
}, {
  "category": "criminal-damage-arson",
  "location_type": "Force",
  "location": {
    "latitude": "51.571984",
    "street": {
      "id": 974865,
      "name": "On or near Oldfield Mews"
    },
    "longitude": "-0.136357"
  },
  "context": "",
  "outcome_status": {
    "category": "Under investigation",
    "date": "2014-02"
  },
  "persistent_id": "21187739bc3e8f83fc8e6d2142e2e4eb5fef5587e646f8bc86a826de55ee981c",
  "id": 29920722,
  "location_subtype": "",
  "month": "2014-02"
}, {
  "category": "drugs",
  "location_type": "Force",
  "location": {
    "latitude": "51.584689",
    "street": {
      "id": 974860,
      "name": "On or near Connaught Gardens"
    },
    "longitude": "-0.139662"
  },
  "context": "",
  "outcome_status": {
    "category": "Offender given a drugs possession warning",
    "date": "2014-02"
  },
  "persistent_id": "cf67a764beef9bc7a7805b331fc37b008ab77472d4455c4ffdb67eca6c2e65aa",
  "id": 29896127,
  "location_subtype": "",
  "month": "2014-02"
}, {
  "category": "drugs",
  "location_type": "BTP",
  "location": {
    "latitude": "51.587200",
    "street": {
      "id": 1488689,
      "name": "East Finchley"
    },
    "longitude": "-0.164847"
  },
  "context": "",
  "outcome_status": {
    "category": "Under investigation",
    "date": "2014-02"
  },
  "persistent_id": "",
  "id": 32376384,
  "location_subtype": "LU STATION",
  "month": "2014-02"
}, {
  "category": "drugs",
  "location_type": "Force",
  "location": {
    "latitude": "51.568450",
    "street": {
      "id": 972154,
      "name": "On or near Archway Road"
    },
    "longitude": "-0.136328"
  },
  "context": "",
  "outcome_status": {
    "category": "Offender given a caution",
    "date": "2014-03"
  },
  "persistent_id": "71c48bd55cfff67d74c6d302e43517712955e419a9b701b50cd45d18df601886",
  "id": 29905790,
  "location_subtype": "",
  "month": "2014-02"
}, {
  "category": "other-theft",
  "location_type": "Force",
  "location": {
    "latitude": "51.566681",
    "street": {
      "id": 972136,
      "name": "On or near Hospital"
    },
    "longitude": "-0.138175"
  },
  "context": "",
  "outcome_status": {
    "category": "Under investigation",
    "date": "2014-02"
  },
  "persistent_id": "e9739cfbc47d3f9501aec6658e26720fee7d801752bc046795f7f1f725fef1ba",
  "id": 29881450,
  "location_subtype": "",
  "month": "2014-02"
}, {
  "category": "other-theft",
  "location_type": "Force",
  "location": {
    "latitude": "51.575250",
    "street": {
      "id": 974726,
      "name": "On or near Broadlands Close"
    },
    "longitude": "-0.152329"
  },
  "context": "",
  "outcome_status": {
    "category": "Under investigation",
    "date": "2014-02"
  },
  "persistent_id": "5823bdee8d5ab6cd40ffecbb872663d2f1b9fa1aaf1e54fea5930d62e820aae9",
  "id": 29920297,
  "location_subtype": "",
  "month": "2014-02"
}, {
  "category": "other-theft",
  "location_type": "Force",
  "location": {
    "latitude": "51.563776",
    "street": {
      "id": 972112,
      "name": "On or near Chester Road"
    },
    "longitude": "-0.143286"
  },
  "context": "",
  "outcome_status": {
    "category": "Investigation complete; no suspect identified",
    "date": "2014-02"
  },
  "persistent_id": "ea684810d30149c1fb1a98cc49c5c60d8cf116b862835e55930af5f136c4d8f9",
  "id": 29836629,
  "location_subtype": "",
  "month": "2014-02"
}, {
  "category": "other-theft",
  "location_type": "Force",
  "location": {
    "latitude": "51.587400",
    "street": {
      "id": 978524,
      "name": "On or near Ingram Road"
    },
    "longitude": "-0.162749"
  },
  "context": "",
  "outcome_status": {
    "category": "Investigation complete; no suspect identified",
    "date": "2014-02"
  },
  "persistent_id": "b188907e5cc546b811204d4fd17222f4c88255d99b7668c65b9f091e6a3764a3",
  "id": 29915755,
  "location_subtype": "",
  "month": "2014-02"
}, {
  "category": "other-theft",
  "location_type": "Force",
  "location": {
    "latitude": "51.571023",
    "street": {
      "id": 972288,
      "name": "On or near Highgate High Street"
    },
    "longitude": "-0.148921"
  },
  "context": "",
  "outcome_status": {
    "category": "Investigation complete; no suspect identified",
    "date": "2014-03"
  },
  "persistent_id": "eaf884047c15d9fbcf6e1776a9cc0275a17529000f754e5cb50f0c871818a773",
  "id": 29912448,
  "location_subtype": "",
  "month": "2014-02"
}, {
  "category": "other-theft",
  "location_type": "Force",
  "location": {
    "latitude": "51.567552",
    "street": {
      "id": 972147,
      "name": "On or near Highgate Hill"
    },
    "longitude": "-0.138659"
  },
  "context": "",
  "outcome_status": {
    "category": "Investigation complete; no suspect identified",
    "date": "2014-02"
  },
  "persistent_id": "88ac97ecbfdfbbbd99d9dc004af5c461f6efcc7ead6b64891872920add8d1100",
  "id": 29909399,
  "location_subtype": "",
  "month": "2014-02"
}, {
  "category": "other-theft",
  "location_type": "Force",
  "location": {
    "latitude": "51.572750",
    "street": {
      "id": 974870,
      "name": "On or near Cholmeley Park"
    },
    "longitude": "-0.143252"
  },
  "context": "",
  "outcome_status": {
    "category": "Under investigation",
    "date": "2014-02"
  },
  "persistent_id": "85922c7d6330c76cf5433b34b03571847666c1d60dc926812aa5edf919b8e110",
  "id": 29872289,
  "location_subtype": "",
  "month": "2014-02"
}, {
  "category": "other-theft",
  "location_type": "Force",
  "location": {
    "latitude": "51.580593",
    "street": {
      "id": 974730,
      "name": "On or near Baker's Lane"
    },
    "longitude": "-0.154768"
  },
  "context": "",
  "outcome_status": {
    "category": "Investigation complete; no suspect identified",
    "date": "2014-03"
  },
  "persistent_id": "854d8ffe04f45bd524d862ada29756e25c3080a049017f6d41904123906d7819",
  "id": 29887003,
  "location_subtype": "",
  "month": "2014-02"
}, {
  "category": "other-theft",
  "location_type": "Force",
  "location": {
    "latitude": "51.582755",
    "street": {
      "id": 974737,
      "name": "On or near Sussex Gardens"
    },
    "longitude": "-0.157827"
  },
  "context": "",
  "outcome_status": {
    "category": "Investigation complete; no suspect identified",
    "date": "2014-05"
  },
  "persistent_id": "fd2b028f52af50640f9068f0d287efe01756cc80a7582196f327a3707e756252",
  "id": 29918419,
  "location_subtype": "",
  "month": "2014-02"
}, {
  "category": "other-theft",
  "location_type": "Force",
  "location": {
    "latitude": "51.580593",
    "street": {
      "id": 974730,
      "name": "On or near Baker's Lane"
    },
    "longitude": "-0.154768"
  },
  "context": "",
  "outcome_status": {
    "category": "Investigation complete; no suspect identified",
    "date": "2014-02"
  },
  "persistent_id": "7c4d724b362671dbd84ba89352ff360539d0cd92057a803b4fd5498a8fc9ec3e",
  "id": 29882986,
  "location_subtype": "",
  "month": "2014-02"
}, {
  "category": "other-theft",
  "location_type": "Force",
  "location": {
    "latitude": "51.580593",
    "street": {
      "id": 974730,
      "name": "On or near Baker's Lane"
    },
    "longitude": "-0.154768"
  },
  "context": "",
  "outcome_status": {
    "category": "Investigation complete; no suspect identified",
    "date": "2014-02"
  },
  "persistent_id": "17ae0c667042b09e7c255c05150c2d419964251c4f9b64363597b35dc1fa28ba",
  "id": 29880256,
  "location_subtype": "",
  "month": "2014-02"
}, {
  "category": "other-theft",
  "location_type": "Force",
  "location": {
    "latitude": "51.563323",
    "street": {
      "id": 972128,
      "name": "On or near Dartmouth Park Hill"
    },
    "longitude": "-0.140765"
  },
  "context": "",
  "outcome_status": {
    "category": "Investigation complete; no suspect identified",
    "date": "2014-02"
  },
  "persistent_id": "08c9706541a2deb26e2c1a2f5f6a936d7b2f102d7c2861c3d9518cb97cd8fe84",
  "id": 29879089,
  "location_subtype": "",
  "month": "2014-02"
}, {
  "category": "other-theft",
  "location_type": "Force",
  "location": {
    "latitude": "51.575250",
    "street": {
      "id": 974726,
      "name": "On or near Broadlands Close"
    },
    "longitude": "-0.152329"
  },
  "context": "",
  "outcome_status": {
    "category": "Under investigation",
    "date": "2014-02"
  },
  "persistent_id": "5823bdee8d5ab6cd40ffecbb872663d2f1b9fa1aaf1e54fea5930d62e820aae9",
  "id": 29920299,
  "location_subtype": "",
  "month": "2014-02"
}, {
  "category": "other-theft",
  "location_type": "Force",
  "location": {
    "latitude": "51.572521",
    "street": {
      "id": 974754,
      "name": "On or near Hampstead Lane"
    },
    "longitude": "-0.165268"
  },
  "context": "",
  "outcome_status": {
    "category": "Under investigation",
    "date": "2014-02"
  },
  "persistent_id": "38f39dfc31f13cb13de593b400f7164403eef1451eddc43e47b0e5ebabfaf6c7",
  "id": 29860584,
  "location_subtype": "",
  "month": "2014-02"
}, {
  "category": "other-theft",
  "location_type": "Force",
  "location": {
    "latitude": "51.572821",
    "street": {
      "id": 974763,
      "name": "On or near Petrol Station"
    },
    "longitude": "-0.149988"
  },
  "context": "",
  "outcome_status": {
    "category": "Investigation complete; no suspect identified",
    "date": "2014-02"
  },
  "persistent_id": "ca0940d8b27da15a6bf57fa18f6b817ed119bb5b9a870b7725c83bab6cf97b2a",
  "id": 29854759,
  "location_subtype": "",
  "month": "2014-02"
}, {
  "category": "other-theft",
  "location_type": "Force",
  "location": {
    "latitude": "51.569273",
    "street": {
      "id": 972231,
      "name": "On or near Harberton Road"
    },
    "longitude": "-0.134346"
  },
  "context": "",
  "outcome_status": {
    "category": "Awaiting court outcome",
    "date": "2014-04"
  },
  "persistent_id": "d543b315427c1c519e27db5a98bc5692cbbc5b42b8ca9ab5a99474a85348af77",
  "id": 29924230,
  "location_subtype": "",
  "month": "2014-02"
}, {
  "category": "other-theft",
  "location_type": "Force",
  "location": {
    "latitude": "51.575250",
    "street": {
      "id": 974726,
      "name": "On or near Broadlands Close"
    },
    "longitude": "-0.152329"
  },
  "context": "",
  "outcome_status": {
    "category": "Under investigation",
    "date": "2014-02"
  },
  "persistent_id": "5823bdee8d5ab6cd40ffecbb872663d2f1b9fa1aaf1e54fea5930d62e820aae9",
  "id": 29920301,
  "location_subtype": "",
  "month": "2014-02"
}, {
  "category": "other-theft",
  "location_type": "Force",
  "location": {
    "latitude": "51.566681",
    "street": {
      "id": 972136,
      "name": "On or near Hospital"
    },
    "longitude": "-0.138175"
  },
  "context": "",
  "outcome_status": {
    "category": "Investigation complete; no suspect identified",
    "date": "2014-02"
  },
  "persistent_id": "f3d84a69ac652e3e7ccbadbb63f593c0aaebf6030b4c13bdd2c45adc21df1cb5",
  "id": 29899339,
  "location_subtype": "",
  "month": "2014-02"
}, {
  "category": "other-theft",
  "location_type": "Force",
  "location": {
    "latitude": "51.571984",
    "street": {
      "id": 974865,
      "name": "On or near Oldfield Mews"
    },
    "longitude": "-0.136357"
  },
  "context": "",
  "outcome_status": {
    "category": "Under investigation",
    "date": "2014-02"
  },
  "persistent_id": "325a2b77660b4b4c3bba1d5938fb13ccb44063fea708aa2b234dab0f76b6ae04",
  "id": 29913271,
  "location_subtype": "",
  "month": "2014-02"
}, {
  "category": "other-theft",
  "location_type": "Force",
  "location": {
    "latitude": "51.586677",
    "street": {
      "id": 978598,
      "name": "On or near Pedestrian Subway"
    },
    "longitude": "-0.147058"
  },
  "context": "",
  "outcome_status": {
    "category": "Investigation complete; no suspect identified",
    "date": "2014-04"
  },
  "persistent_id": "51270243379553b327e324f3fec905134878eb1fa2e2ba8e03851802b691d11b",
  "id": 29897404,
  "location_subtype": "",
  "month": "2014-02"
}, {
  "category": "other-theft",
  "location_type": "Force",
  "location": {
    "latitude": "51.580593",
    "street": {
      "id": 974730,
      "name": "On or near Baker's Lane"
    },
    "longitude": "-0.154768"
  },
  "context": "",
  "outcome_status": {
    "category": "Investigation complete; no suspect identified",
    "date": "2014-02"
  },
  "persistent_id": "126651eeda9c7a362803174c7f4032260817534856d45f042fb9c75e4b8c9eb9",
  "id": 29851085,
  "location_subtype": "",
  "month": "2014-02"
}, {
  "category": "public-order",
  "location_type": "Force",
  "location": {
    "latitude": "51.566681",
    "street": {
      "id": 972136,
      "name": "On or near Hospital"
    },
    "longitude": "-0.138175"
  },
  "context": "",
  "outcome_status": {
    "category": "Awaiting court outcome",
    "date": "2014-02"
  },
  "persistent_id": "8208eba2a58424ccfd2a1623ef52f0b0ccb6529d95b7d547df3b5eb14da1139b",
  "id": 29835011,
  "location_subtype": "",
  "month": "2014-02"
}, {
  "category": "public-order",
  "location_type": "Force",
  "location": {
    "latitude": "51.571757",
    "street": {
      "id": 972296,
      "name": "On or near Theatre\/concert Hall"
    },
    "longitude": "-0.150378"
  },
  "context": "",
  "outcome_status": {
    "category": "Investigation complete; no suspect identified",
    "date": "2014-03"
  },
  "persistent_id": "29be85e1520904a8090c20abd7ef901a7920280f812827668847c889a5849fc2",
  "id": 29900376,
  "location_subtype": "",
  "month": "2014-02"
}, {
  "category": "public-order",
  "location_type": "Force",
  "location": {
    "latitude": "51.565995",
    "street": {
      "id": 972303,
      "name": "On or near Swain's Lane"
    },
    "longitude": "-0.146557"
  },
  "context": "",
  "outcome_status": {
    "category": "Investigation complete; no suspect identified",
    "date": "2014-02"
  },
  "persistent_id": "ee11e9729d2f432567ff8a87467a18e080bb6a66e0aa3d4c7efb22e985326d55",
  "id": 29910884,
  "location_subtype": "",
  "month": "2014-02"
}, {
  "category": "robbery",
  "location_type": "Force",
  "location": {
    "latitude": "51.571023",
    "street": {
      "id": 972288,
      "name": "On or near Highgate High Street"
    },
    "longitude": "-0.148921"
  },
  "context": "",
  "outcome_status": {
    "category": "Investigation complete; no suspect identified",
    "date": "2014-04"
  },
  "persistent_id": "61dbbe310cd45ad4205fbdcedea04f00d1b48832507330ae16f3c1f1c6616212",
  "id": 29876100,
  "location_subtype": "",
  "month": "2014-02"
}, {
  "category": "robbery",
  "location_type": "Force",
  "location": {
    "latitude": "51.576373",
    "street": {
      "id": 974711,
      "name": "On or near Southwood Lane"
    },
    "longitude": "-0.147708"
  },
  "context": "",
  "outcome_status": {
    "category": "Investigation complete; no suspect identified",
    "date": "2014-02"
  },
  "persistent_id": "8f7dbaf0dda42fe1f4a6e5f8ef0673409292a36f6e56b8d5dfa1fa0a01eee2ce",
  "id": 29874092,
  "location_subtype": "",
  "month": "2014-02"
}, {
  "category": "robbery",
  "location_type": "Force",
  "location": {
    "latitude": "51.571023",
    "street": {
      "id": 972288,
      "name": "On or near Highgate High Street"
    },
    "longitude": "-0.148921"
  },
  "context": "",
  "outcome_status": {
    "category": "Investigation complete; no suspect identified",
    "date": "2014-05"
  },
  "persistent_id": "63c2abae7624d0d34901b0de000a293951defe0589ccd4f89f3e91747fc69712",
  "id": 29900515,
  "location_subtype": "",
  "month": "2014-02"
}, {
  "category": "robbery",
  "location_type": "Force",
  "location": {
    "latitude": "51.566681",
    "street": {
      "id": 972136,
      "name": "On or near Hospital"
    },
    "longitude": "-0.138175"
  },
  "context": "",
  "outcome_status": {
    "category": "Investigation complete; no suspect identified",
    "date": "2014-03"
  },
  "persistent_id": "b590fded6ffaf77ad510ec45123cc2e50b001ced663656b5485ca19a0e5ad301",
  "id": 29920567,
  "location_subtype": "",
  "month": "2014-02"
}, {
  "category": "theft-from-the-person",
  "location_type": "Force",
  "location": {
    "latitude": "51.577653",
    "street": {
      "id": 974729,
      "name": "On or near Bishops Road"
    },
    "longitude": "-0.149619"
  },
  "context": "",
  "outcome_status": {
    "category": "Under investigation",
    "date": "2014-02"
  },
  "persistent_id": "2d7842258d672062fd27fe9d6d0642416d61d3d7ee6a0f11aa4a6a82d7629a0c",
  "id": 29920729,
  "location_subtype": "",
  "month": "2014-02"
}, {
  "category": "theft-from-the-person",
  "location_type": "Force",
  "location": {
    "latitude": "51.567552",
    "street": {
      "id": 972147,
      "name": "On or near Highgate Hill"
    },
    "longitude": "-0.138659"
  },
  "context": "",
  "outcome_status": {
    "category": "Investigation complete; no suspect identified",
    "date": "2014-02"
  },
  "persistent_id": "fc34518e8b9b5a8a701b6bb5bfbc11e57067e2dc1f945b7463008c30dde1e75f",
  "id": 29895760,
  "location_subtype": "",
  "month": "2014-02"
}, {
  "category": "theft-from-the-person",
  "location_type": "BTP",
  "location": {
    "latitude": "51.587200",
    "street": {
      "id": 1488689,
      "name": "East Finchley"
    },
    "longitude": "-0.164847"
  },
  "context": "",
  "outcome_status": {
    "category": "Under investigation",
    "date": "2014-02"
  },
  "persistent_id": "",
  "id": 32376398,
  "location_subtype": "LU STATION",
  "month": "2014-02"
}, {
  "category": "theft-from-the-person",
  "location_type": "Force",
  "location": {
    "latitude": "51.577476",
    "street": {
      "id": 974702,
      "name": "On or near Parking Area"
    },
    "longitude": "-0.145830"
  },
  "context": "",
  "outcome_status": {
    "category": "Under investigation",
    "date": "2014-02"
  },
  "persistent_id": "c11fa2e33c56a9e0f745714096f25bfcb6095e96048da51fb33b60e8c7697935",
  "id": 29885347,
  "location_subtype": "",
  "month": "2014-02"
}, {
  "category": "theft-from-the-person",
  "location_type": "Force",
  "location": {
    "latitude": "51.567552",
    "street": {
      "id": 972147,
      "name": "On or near Highgate Hill"
    },
    "longitude": "-0.138659"
  },
  "context": "",
  "outcome_status": {
    "category": "Under investigation",
    "date": "2014-02"
  },
  "persistent_id": "60cd076c8386522e06ea0a8ab2b1a948dc288c1fa0c86b410477fa5aea2a0a40",
  "id": 29869958,
  "location_subtype": "",
  "month": "2014-02"
}, {
  "category": "theft-from-the-person",
  "location_type": "Force",
  "location": {
    "latitude": "51.566681",
    "street": {
      "id": 972136,
      "name": "On or near Hospital"
    },
    "longitude": "-0.138175"
  },
  "context": "",
  "outcome_status": {
    "category": "Under investigation",
    "date": "2014-02"
  },
  "persistent_id": "d23a4d4b0b4514f87aa7f69fc0585e7eb925f88f5047aa12b8945538a740f9f8",
  "id": 29923558,
  "location_subtype": "",
  "month": "2014-02"
}, {
  "category": "theft-from-the-person",
  "location_type": "Force",
  "location": {
    "latitude": "51.585679",
    "street": {
      "id": 978600,
      "name": "On or near Muswell Hill Road"
    },
    "longitude": "-0.147113"
  },
  "context": "",
  "outcome_status": {
    "category": "Under investigation",
    "date": "2014-02"
  },
  "persistent_id": "836c60109985b1187979c07665ea5cc889fbad7c69c05397d01e76abb2e2d374",
  "id": 29924077,
  "location_subtype": "",
  "month": "2014-02"
}, {
  "category": "theft-from-the-person",
  "location_type": "Force",
  "location": {
    "latitude": "51.570071",
    "street": {
      "id": 972294,
      "name": "On or near Bisham Gardens"
    },
    "longitude": "-0.147272"
  },
  "context": "",
  "outcome_status": {
    "category": "Investigation complete; no suspect identified",
    "date": "2014-02"
  },
  "persistent_id": "8f60dfe2dd222fb5c7254108d153713dc37122f437741c3ca1feb126719ab4ec",
  "id": 29836677,
  "location_subtype": "",
  "month": "2014-02"
}, {
  "category": "theft-from-the-person",
  "location_type": "Force",
  "location": {
    "latitude": "51.586677",
    "street": {
      "id": 978598,
      "name": "On or near Pedestrian Subway"
    },
    "longitude": "-0.147058"
  },
  "context": "",
  "outcome_status": {
    "category": "Investigation complete; no suspect identified",
    "date": "2014-03"
  },
  "persistent_id": "cdfc195eeb37c37848192e488a6ab75bc7ee2869cf7c8cfb6bdddb3157d44ba2",
  "id": 29846283,
  "location_subtype": "",
  "month": "2014-02"
}, {
  "category": "theft-from-the-person",
  "location_type": "Force",
  "location": {
    "latitude": "51.585679",
    "street": {
      "id": 978600,
      "name": "On or near Muswell Hill Road"
    },
    "longitude": "-0.147113"
  },
  "context": "",
  "outcome_status": {
    "category": "Investigation complete; no suspect identified",
    "date": "2014-02"
  },
  "persistent_id": "980f0bcd43c296461b3eab207f16d8ed4fdbf4bbb85c3c1382d1e05eb0e5cde6",
  "id": 29856579,
  "location_subtype": "",
  "month": "2014-02"
}, {
  "category": "theft-from-the-person",
  "location_type": "Force",
  "location": {
    "latitude": "51.585679",
    "street": {
      "id": 978600,
      "name": "On or near Muswell Hill Road"
    },
    "longitude": "-0.147113"
  },
  "context": "",
  "outcome_status": {
    "category": "Investigation complete; no suspect identified",
    "date": "2014-02"
  },
  "persistent_id": "569e4daf90d039a50dacc0f7e5efceaad5962a5f772058ce6675ccff6f3c7512",
  "id": 29876916,
  "location_subtype": "",
  "month": "2014-02"
}, {
  "category": "theft-from-the-person",
  "location_type": "Force",
  "location": {
    "latitude": "51.567301",
    "street": {
      "id": 972124,
      "name": "On or near Highgate Hill"
    },
    "longitude": "-0.137010"
  },
  "context": "",
  "outcome_status": {
    "category": "Investigation complete; no suspect identified",
    "date": "2014-02"
  },
  "persistent_id": "5866dfcc331df40e74b3df340b95f587eaad7841434dee2cb6496225d9a63cd3",
  "id": 29922903,
  "location_subtype": "",
  "month": "2014-02"
}, {
  "category": "theft-from-the-person",
  "location_type": "Force",
  "location": {
    "latitude": "51.576294",
    "street": {
      "id": 974732,
      "name": "On or near Theatre\/concert Hall"
    },
    "longitude": "-0.144450"
  },
  "context": "",
  "outcome_status": {
    "category": "Investigation complete; no suspect identified",
    "date": "2014-02"
  },
  "persistent_id": "6fff39f9059c4a3705df10c49e1b6d3451e7801d2dcdfbcf7fe38774496ac218",
  "id": 29860890,
  "location_subtype": "",
  "month": "2014-02"
}, {
  "category": "theft-from-the-person",
  "location_type": "Force",
  "location": {
    "latitude": "51.586677",
    "street": {
      "id": 978598,
      "name": "On or near Pedestrian Subway"
    },
    "longitude": "-0.147058"
  },
  "context": "",
  "outcome_status": {
    "category": "Investigation complete; no suspect identified",
    "date": "2014-02"
  },
  "persistent_id": "fb6a1ae9670a364371be2f780b75b8bb7b6dd80ed0b5ead068cf0315b33562eb",
  "id": 29856581,
  "location_subtype": "",
  "month": "2014-02"
}, {
  "category": "theft-from-the-person",
  "location_type": "Force",
  "location": {
    "latitude": "51.566681",
    "street": {
      "id": 972136,
      "name": "On or near Hospital"
    },
    "longitude": "-0.138175"
  },
  "context": "",
  "outcome_status": {
    "category": "Investigation complete; no suspect identified",
    "date": "2014-02"
  },
  "persistent_id": "0ce2f1a7ba98f46c812d9754f183ce13a4adb82091f45bdc166c851c37430b19",
  "id": 29868538,
  "location_subtype": "",
  "month": "2014-02"
}, {
  "category": "theft-from-the-person",
  "location_type": "Force",
  "location": {
    "latitude": "51.586279",
    "street": {
      "id": 978607,
      "name": "On or near Beaumont Close"
    },
    "longitude": "-0.164642"
  },
  "context": "",
  "outcome_status": {
    "category": "Investigation complete; no suspect identified",
    "date": "2014-02"
  },
  "persistent_id": "663aec97d781a92906526d2dd4678ddadf8c83496fb495d838803d74a751af25",
  "id": 29874042,
  "location_subtype": "",
  "month": "2014-02"
}, {
  "category": "theft-from-the-person",
  "location_type": "Force",
  "location": {
    "latitude": "51.572185",
    "street": {
      "id": 974879,
      "name": "On or near Ashmount Road"
    },
    "longitude": "-0.132539"
  },
  "context": "",
  "outcome_status": {
    "category": "Investigation complete; no suspect identified",
    "date": "2014-02"
  },
  "persistent_id": "9157bc61eab095c7ed0b9e58fc757c53ccac20aea349f44e1f73268e93b80e6e",
  "id": 29869589,
  "location_subtype": "",
  "month": "2014-02"
}, {
  "category": "theft-from-the-person",
  "location_type": "Force",
  "location": {
    "latitude": "51.572821",
    "street": {
      "id": 974763,
      "name": "On or near Petrol Station"
    },
    "longitude": "-0.149988"
  },
  "context": "",
  "outcome_status": {
    "category": "Investigation complete; no suspect identified",
    "date": "2014-02"
  },
  "persistent_id": "8b10f4a1cb9b477b161d5e0a14a25b90217b7280b94dbd7c4c212e23eb2d78a6",
  "id": 29869739,
  "location_subtype": "",
  "month": "2014-02"
}, {
  "category": "theft-from-the-person",
  "location_type": "BTP",
  "location": {
    "latitude": "51.587200",
    "street": {
      "id": 1488689,
      "name": "East Finchley"
    },
    "longitude": "-0.164847"
  },
  "context": "",
  "outcome_status": {
    "category": "Under investigation",
    "date": "2014-02"
  },
  "persistent_id": "",
  "id": 32376412,
  "location_subtype": "LU STATION",
  "month": "2014-02"
}, {
  "category": "theft-from-the-person",
  "location_type": "Force",
  "location": {
    "latitude": "51.573363",
    "street": {
      "id": 974872,
      "name": "On or near Causton Road"
    },
    "longitude": "-0.142188"
  },
  "context": "",
  "outcome_status": {
    "category": "Under investigation",
    "date": "2014-02"
  },
  "persistent_id": "6b7ba87b05a45c372de13740afb28bfb9b196df3fac49b10327b5a06632b85c0",
  "id": 29925364,
  "location_subtype": "",
  "month": "2014-02"
}, {
  "category": "theft-from-the-person",
  "location_type": "Force",
  "location": {
    "latitude": "51.574376",
    "street": {
      "id": 974843,
      "name": "On or near Northwood Road"
    },
    "longitude": "-0.140300"
  },
  "context": "",
  "outcome_status": {
    "category": "Under investigation",
    "date": "2014-02"
  },
  "persistent_id": "6778c6f0603c2672dbf95b2542fb5b90f2449a6991eb16dbf4b2c15fc701d05c",
  "id": 29835340,
  "location_subtype": "",
  "month": "2014-02"
}, {
  "category": "theft-from-the-person",
  "location_type": "Force",
  "location": {
    "latitude": "51.580973",
    "street": {
      "id": 974719,
      "name": "On or near Muswell Hill Road"
    },
    "longitude": "-0.146915"
  },
  "context": "",
  "outcome_status": {
    "category": "Investigation complete; no suspect identified",
    "date": "2014-02"
  },
  "persistent_id": "b729e9d844260b67f3dae8840b4685be0dddb5593ae3f56af06f9c3d3692cc13",
  "id": 29856593,
  "location_subtype": "",
  "month": "2014-02"
}, {
  "category": "vehicle-crime",
  "location_type": "Force",
  "location": {
    "latitude": "51.566681",
    "street": {
      "id": 972136,
      "name": "On or near Hospital"
    },
    "longitude": "-0.138175"
  },
  "context": "",
  "outcome_status": {
    "category": "Investigation complete; no suspect identified",
    "date": "2014-02"
  },
  "persistent_id": "84e3f734f182c0add316c46db1b7f85bfe93497f8f8dc4048f27c490871e04ac",
  "id": 29874784,
  "location_subtype": "",
  "month": "2014-02"
}, {
  "category": "vehicle-crime",
  "location_type": "Force",
  "location": {
    "latitude": "51.566681",
    "street": {
      "id": 972136,
      "name": "On or near Hospital"
    },
    "longitude": "-0.138175"
  },
  "context": "",
  "outcome_status": {
    "category": "Under investigation",
    "date": "2014-02"
  },
  "persistent_id": "6dc7ff7fd594420f251cb18503478882ab7023cdc3a70459b189f59a9f69bbd1",
  "id": 29917662,
  "location_subtype": "",
  "month": "2014-02"
}, {
  "category": "vehicle-crime",
  "location_type": "Force",
  "location": {
    "latitude": "51.572750",
    "street": {
      "id": 974870,
      "name": "On or near Cholmeley Park"
    },
    "longitude": "-0.143252"
  },
  "context": "",
  "outcome_status": {
    "category": "Under investigation",
    "date": "2014-02"
  },
  "persistent_id": "2b6f40c38fcb22b26bd17e553f95d6f665f46ea16c22776a5c2f815079650e6e",
  "id": 29914207,
  "location_subtype": "",
  "month": "2014-02"
}, {
  "category": "vehicle-crime",
  "location_type": "Force",
  "location": {
    "latitude": "51.567804",
    "street": {
      "id": 972142,
      "name": "On or near Pauntley Street"
    },
    "longitude": "-0.135258"
  },
  "context": "",
  "outcome_status": {
    "category": "Under investigation",
    "date": "2014-02"
  },
  "persistent_id": "4c6b7eadf5743aeb68c8167cc7efbae22664b82707edbce4f181d0bdc3e35a72",
  "id": 29907576,
  "location_subtype": "",
  "month": "2014-02"
}, {
  "category": "vehicle-crime",
  "location_type": "Force",
  "location": {
    "latitude": "51.571864",
    "street": {
      "id": 974869,
      "name": "On or near Parklands"
    },
    "longitude": "-0.143505"
  },
  "context": "",
  "outcome_status": {
    "category": "Under investigation",
    "date": "2014-02"
  },
  "persistent_id": "cde49211b9ae096f9a806904ccd24e599101327f59655e444c05a388d970d40f",
  "id": 29906154,
  "location_subtype": "",
  "month": "2014-02"
}, {
  "category": "vehicle-crime",
  "location_type": "Force",
  "location": {
    "latitude": "51.573473",
    "street": {
      "id": 974861,
      "name": "On or near Wembury Road"
    },
    "longitude": "-0.140062"
  },
  "context": "",
  "outcome_status": {
    "category": "Under investigation",
    "date": "2014-02"
  },
  "persistent_id": "ce38ea42bd2c0994728623e2c2b025d66e40cd15c45826140e0b1536be6591ca",
  "id": 29904076,
  "location_subtype": "",
  "month": "2014-02"
}, {
  "category": "vehicle-crime",
  "location_type": "Force",
  "location": {
    "latitude": "51.571023",
    "street": {
      "id": 972288,
      "name": "On or near Highgate High Street"
    },
    "longitude": "-0.148921"
  },
  "context": "",
  "outcome_status": {
    "category": "Under investigation",
    "date": "2014-02"
  },
  "persistent_id": "dbe318e9116e7dc987dc8806645e717d57eea46102b885d4231ea77439e58b4d",
  "id": 29900299,
  "location_subtype": "",
  "month": "2014-02"
}, {
  "category": "vehicle-crime",
  "location_type": "Force",
  "location": {
    "latitude": "51.571597",
    "street": {
      "id": 972330,
      "name": "On or near Hampstead Lane"
    },
    "longitude": "-0.172925"
  },
  "context": "",
  "outcome_status": {
    "category": "Under investigation",
    "date": "2014-02"
  },
  "persistent_id": "837f86be8b05eb8d7c52d907561c84860ef4b98307db2b8c2bc464b2267cda88",
  "id": 29897836,
  "location_subtype": "",
  "month": "2014-02"
}, {
  "category": "vehicle-crime",
  "location_type": "Force",
  "location": {
    "latitude": "51.569273",
    "street": {
      "id": 972231,
      "name": "On or near Harberton Road"
    },
    "longitude": "-0.134346"
  },
  "context": "",
  "outcome_status": {
    "category": "Under investigation",
    "date": "2014-02"
  },
  "persistent_id": "bd93388c40f63bf643bbad151f80dbffaa04b618853ef4099c9286f2f2b0ba05",
  "id": 29897351,
  "location_subtype": "",
  "month": "2014-02"
}, {
  "category": "vehicle-crime",
  "location_type": "Force",
  "location": {
    "latitude": "51.572750",
    "street": {
      "id": 974870,
      "name": "On or near Cholmeley Park"
    },
    "longitude": "-0.143252"
  },
  "context": "",
  "outcome_status": {
    "category": "Under investigation",
    "date": "2014-02"
  },
  "persistent_id": "e0317fe318ef58378ebcbf601670824462332effd06d26af9f9f74cd728c62b9",
  "id": 29896793,
  "location_subtype": "",
  "month": "2014-02"
}, {
  "category": "vehicle-crime",
  "location_type": "Force",
  "location": {
    "latitude": "51.580182",
    "street": {
      "id": 974767,
      "name": "On or near Summersby Road"
    },
    "longitude": "-0.145807"
  },
  "context": "",
  "outcome_status": {
    "category": "Under investigation",
    "date": "2014-02"
  },
  "persistent_id": "4679ba92965294aad6e0d1b93c184552a3e2e74286f8a3aea862004a9a0ea9a9",
  "id": 29896243,
  "location_subtype": "",
  "month": "2014-02"
}, {
  "category": "vehicle-crime",
  "location_type": "Force",
  "location": {
    "latitude": "51.588893",
    "street": {
      "id": 978582,
      "name": "On or near Birchwood Avenue"
    },
    "longitude": "-0.148484"
  },
  "context": "",
  "outcome_status": {
    "category": "Under investigation",
    "date": "2014-02"
  },
  "persistent_id": "cca66227e81577acdb7ac523a74279660ea79756b9e65e480b866725245d95e0",
  "id": 29921563,
  "location_subtype": "",
  "month": "2014-02"
}, {
  "category": "vehicle-crime",
  "location_type": "Force",
  "location": {
    "latitude": "51.571549",
    "street": {
      "id": 974877,
      "name": "On or near Gresley Road"
    },
    "longitude": "-0.133257"
  },
  "context": "",
  "outcome_status": {
    "category": "Under investigation",
    "date": "2014-02"
  },
  "persistent_id": "775d64c6b4fea39e9091000a19b4c7b16fa21fdaa719993263f1df47a525557c",
  "id": 29893771,
  "location_subtype": "",
  "month": "2014-02"
}, {
  "category": "vehicle-crime",
  "location_type": "Force",
  "location": {
    "latitude": "51.562374",
    "street": {
      "id": 972272,
      "name": "On or near St Anne's Close"
    },
    "longitude": "-0.150701"
  },
  "context": "",
  "outcome_status": {
    "category": "Under investigation",
    "date": "2014-02"
  },
  "persistent_id": "ed034aec4ea2e409a5a15e8b7d73ca5c17abfbeca91dae2bfda92f03b2243e91",
  "id": 29891612,
  "location_subtype": "",
  "month": "2014-02"
}, {
  "category": "vehicle-crime",
  "location_type": "Force",
  "location": {
    "latitude": "51.579185",
    "street": {
      "id": 974714,
      "name": "On or near Parkwood Mews"
    },
    "longitude": "-0.145876"
  },
  "context": "",
  "outcome_status": {
    "category": "Under investigation",
    "date": "2014-02"
  },
  "persistent_id": "37a794867b1401f0efe7d68bf597cb5c0074a37ad16486fd3018d5361c65ca3d",
  "id": 29891019,
  "location_subtype": "",
  "month": "2014-02"
}, {
  "category": "vehicle-crime",
  "location_type": "Force",
  "location": {
    "latitude": "51.589172",
    "street": {
      "id": 978512,
      "name": "On or near Western Road"
    },
    "longitude": "-0.158174"
  },
  "context": "",
  "outcome_status": {
    "category": "Under investigation",
    "date": "2014-02"
  },
  "persistent_id": "0e701fefd1937221c3505f97167e7fe49a9f2af9bd5b338d9d7c2083fbbecfa6",
  "id": 29889171,
  "location_subtype": "",
  "month": "2014-02"
}, {
  "category": "vehicle-crime",
  "location_type": "Force",
  "location": {
    "latitude": "51.575407",
    "street": {
      "id": 974821,
      "name": "On or near Avenue Road"
    },
    "longitude": "-0.131613"
  },
  "context": "",
  "outcome_status": {
    "category": "Under investigation",
    "date": "2014-02"
  },
  "persistent_id": "6da0137d33152acfe533e89c9489b2d7f42c91f918527863ff67dbce40817bcf",
  "id": 29886745,
  "location_subtype": "",
  "month": "2014-02"
}, {
  "category": "vehicle-crime",
  "location_type": "Force",
  "location": {
    "latitude": "51.577433",
    "street": {
      "id": 974727,
      "name": "On or near Bramalea Close"
    },
    "longitude": "-0.152226"
  },
  "context": "",
  "outcome_status": {
    "category": "Under investigation",
    "date": "2014-02"
  },
  "persistent_id": "cde043fb0ced83886f0866f84aa5349ad72be7e43dfd6cf7f9ec96ed17157c15",
  "id": 29887008,
  "location_subtype": "",
  "month": "2014-02"
}, {
  "category": "vehicle-crime",
  "location_type": "Force",
  "location": {
    "latitude": "51.581495",
    "street": {
      "id": 974740,
      "name": "On or near Sheldon Avenue"
    },
    "longitude": "-0.157777"
  },
  "context": "",
  "outcome_status": {
    "category": "Under investigation",
    "date": "2014-02"
  },
  "persistent_id": "34110671c9fc5d09cb0fe3dfd587f5711c58321d48d3263d3a4086f50b4acc3d",
  "id": 29886400,
  "location_subtype": "",
  "month": "2014-02"
}, {
  "category": "vehicle-crime",
  "location_type": "Force",
  "location": {
    "latitude": "51.576294",
    "street": {
      "id": 974732,
      "name": "On or near Theatre\/concert Hall"
    },
    "longitude": "-0.144450"
  },
  "context": "",
  "outcome_status": {
    "category": "Under investigation",
    "date": "2014-02"
  },
  "persistent_id": "6220fd416c21901188e3fdcada739265e6690f076ddb302932949fa482eacecb",
  "id": 29885566,
  "location_subtype": "",
  "month": "2014-02"
}, {
  "category": "vehicle-crime",
  "location_type": "Force",
  "location": {
    "latitude": "51.580182",
    "street": {
      "id": 974767,
      "name": "On or near Summersby Road"
    },
    "longitude": "-0.145807"
  },
  "context": "",
  "outcome_status": {
    "category": "Under investigation",
    "date": "2014-02"
  },
  "persistent_id": "b624cce6d72c32906190536884493f5cd7dde7eb68baf36f0c9d622c284205c6",
  "id": 29883378,
  "location_subtype": "",
  "month": "2014-02"
}, {
  "category": "vehicle-crime",
  "location_type": "Force",
  "location": {
    "latitude": "51.586677",
    "street": {
      "id": 978598,
      "name": "On or near Pedestrian Subway"
    },
    "longitude": "-0.147058"
  },
  "context": "",
  "outcome_status": {
    "category": "Under investigation",
    "date": "2014-02"
  },
  "persistent_id": "b2f4cd5b29f0f2cbf33cf9b10152e554cff243b0ed652fa7850a4b2a1f46b448",
  "id": 29882242,
  "location_subtype": "",
  "month": "2014-02"
}, {
  "category": "vehicle-crime",
  "location_type": "Force",
  "location": {
    "latitude": "51.576560",
    "street": {
      "id": 974838,
      "name": "On or near Stanhope Gardens"
    },
    "longitude": "-0.138522"
  },
  "context": "",
  "outcome_status": {
    "category": "Under investigation",
    "date": "2014-02"
  },
  "persistent_id": "a1f57b3742c190ffe6a999d19d676a9f7bb90136a89968e9340d03fa4dc74e95",
  "id": 29874093,
  "location_subtype": "",
  "month": "2014-02"
}, {
  "category": "vehicle-crime",
  "location_type": "Force",
  "location": {
    "latitude": "51.569273",
    "street": {
      "id": 972231,
      "name": "On or near Harberton Road"
    },
    "longitude": "-0.134346"
  },
  "context": "",
  "outcome_status": {
    "category": "Under investigation",
    "date": "2014-02"
  },
  "persistent_id": "f9abebc9e0b637eb35f98821e7ffb5b8585715e58a814acfbbce379857f2415e",
  "id": 29923747,
  "location_subtype": "",
  "month": "2014-02"
}, {
  "category": "vehicle-crime",
  "location_type": "Force",
  "location": {
    "latitude": "51.578448",
    "street": {
      "id": 974724,
      "name": "On or near Church Road"
    },
    "longitude": "-0.151607"
  },
  "context": "",
  "outcome_status": {
    "category": "Under investigation",
    "date": "2014-02"
  },
  "persistent_id": "759db3097a1aa865354d51cb11bad97a2006738c2191cbb2f8afd4a2b6861903",
  "id": 29869889,
  "location_subtype": "",
  "month": "2014-02"
}, {
  "category": "vehicle-crime",
  "location_type": "Force",
  "location": {
    "latitude": "51.569273",
    "street": {
      "id": 972231,
      "name": "On or near Harberton Road"
    },
    "longitude": "-0.134346"
  },
  "context": "",
  "outcome_status": {
    "category": "Under investigation",
    "date": "2014-02"
  },
  "persistent_id": "d9208730ba303aa8e363d984cfdbd2a9b263ace8d3a32ed5413124a667dc5b07",
  "id": 29868961,
  "location_subtype": "",
  "month": "2014-02"
}, {
  "category": "vehicle-crime",
  "location_type": "Force",
  "location": {
    "latitude": "51.577653",
    "street": {
      "id": 974729,
      "name": "On or near Bishops Road"
    },
    "longitude": "-0.149619"
  },
  "context": "",
  "outcome_status": {
    "category": "Under investigation",
    "date": "2014-02"
  },
  "persistent_id": "1ea090ab40107033a8389e6fba93b75511547431dc46381e409a590e3acf8198",
  "id": 29925165,
  "location_subtype": "",
  "month": "2014-02"
}, {
  "category": "vehicle-crime",
  "location_type": "Force",
  "location": {
    "latitude": "51.576714",
    "street": {
      "id": 974855,
      "name": "On or near Shepherd's Close"
    },
    "longitude": "-0.141979"
  },
  "context": "",
  "outcome_status": {
    "category": "Under investigation",
    "date": "2014-02"
  },
  "persistent_id": "e5d1f97411f2adb66286f0280fc465d44f61ef6b2853b0a05175d0aab1b92e64",
  "id": 29864042,
  "location_subtype": "",
  "month": "2014-02"
}, {
  "category": "vehicle-crime",
  "location_type": "Force",
  "location": {
    "latitude": "51.575411",
    "street": {
      "id": 974844,
      "name": "On or near Northwood Road"
    },
    "longitude": "-0.139218"
  },
  "context": "",
  "outcome_status": {
    "category": "Under investigation",
    "date": "2014-02"
  },
  "persistent_id": "10d81caf73a2c4068e30236a0d08df2a6b7fdd81b7d74004bfd4750dcfe7dbe8",
  "id": 29861515,
  "location_subtype": "",
  "month": "2014-02"
}, {
  "category": "vehicle-crime",
  "location_type": "Force",
  "location": {
    "latitude": "51.575180",
    "street": {
      "id": 974712,
      "name": "On or near Southwood Avenue"
    },
    "longitude": "-0.145058"
  },
  "context": "",
  "outcome_status": {
    "category": "Under investigation",
    "date": "2014-02"
  },
  "persistent_id": "4e38da9efd116979e1720f4f24a67acf13faa2784828e7c5103f7fe6d1271dce",
  "id": 29925366,
  "location_subtype": "",
  "month": "2014-02"
}, {
  "category": "vehicle-crime",
  "location_type": "Force",
  "location": {
    "latitude": "51.588705",
    "street": {
      "id": 978563,
      "name": "On or near Grand Avenue"
    },
    "longitude": "-0.147972"
  },
  "context": "",
  "outcome_status": {
    "category": "Under investigation",
    "date": "2014-02"
  },
  "persistent_id": "beaeaa821f5a76eccea7dd05218e26688e95faa3a74357edaa7ae0c9a82b70b3",
  "id": 29925105,
  "location_subtype": "",
  "month": "2014-02"
}, {
  "category": "vehicle-crime",
  "location_type": "Force",
  "location": {
    "latitude": "51.578582",
    "street": {
      "id": 974718,
      "name": "On or near North Hill"
    },
    "longitude": "-0.153824"
  },
  "context": "",
  "outcome_status": {
    "category": "Investigation complete; no suspect identified",
    "date": "2014-03"
  },
  "persistent_id": "69902ab39266972a9bcc6302702d72c06019c3dfece0279720ed4c8989178050",
  "id": 29921217,
  "location_subtype": "",
  "month": "2014-02"
}, {
  "category": "vehicle-crime",
  "location_type": "Force",
  "location": {
    "latitude": "51.564519",
    "street": {
      "id": 972108,
      "name": "On or near Raydon Street"
    },
    "longitude": "-0.142505"
  },
  "context": "",
  "outcome_status": {
    "category": "Under investigation",
    "date": "2014-02"
  },
  "persistent_id": "e7552ed1db51adfdde6ec060bff58df2c9d74f1ecb1cee125fa02051ab67d75d",
  "id": 29906136,
  "location_subtype": "",
  "month": "2014-02"
}, {
  "category": "vehicle-crime",
  "location_type": "Force",
  "location": {
    "latitude": "51.577476",
    "street": {
      "id": 974702,
      "name": "On or near Parking Area"
    },
    "longitude": "-0.145830"
  },
  "context": "",
  "outcome_status": {
    "category": "Under investigation",
    "date": "2014-02"
  },
  "persistent_id": "89b7bb133a81c06d756d691fc7b15c2f9ab79ee13fa7befdf622be05d2dab252",
  "id": 29897219,
  "location_subtype": "",
  "month": "2014-02"
}, {
  "category": "vehicle-crime",
  "location_type": "Force",
  "location": {
    "latitude": "51.584719",
    "street": {
      "id": 974752,
      "name": "On or near The Drive"
    },
    "longitude": "-0.158657"
  },
  "context": "",
  "outcome_status": {
    "category": "Under investigation",
    "date": "2014-02"
  },
  "persistent_id": "94b914267ca26fffbcfdcc30e9289f54fb985a623b9c0b9cc4d1abf56ad128d4",
  "id": 29836287,
  "location_subtype": "",
  "month": "2014-02"
}, {
  "category": "vehicle-crime",
  "location_type": "Force",
  "location": {
    "latitude": "51.577493",
    "street": {
      "id": 974728,
      "name": "On or near Bloomfield Road"
    },
    "longitude": "-0.148615"
  },
  "context": "",
  "outcome_status": {
    "category": "Under investigation",
    "date": "2014-02"
  },
  "persistent_id": "3697ff4eebe745897ffcced25bf155229943d45f8a5972a295530811f2a975b4",
  "id": 29916987,
  "location_subtype": "",
  "month": "2014-02"
}, {
  "category": "vehicle-crime",
  "location_type": "Force",
  "location": {
    "latitude": "51.576560",
    "street": {
      "id": 974838,
      "name": "On or near Stanhope Gardens"
    },
    "longitude": "-0.138522"
  },
  "context": "",
  "outcome_status": {
    "category": "Offender given community sentence",
    "date": "2014-03"
  },
  "persistent_id": "8f50b897fac37902d03a7e0a19c15a208d1be56146ee00ae48b4e1a1b64d0b31",
  "id": 29920277,
  "location_subtype": "",
  "month": "2014-02"
}, {
  "category": "vehicle-crime",
  "location_type": "Force",
  "location": {
    "latitude": "51.585486",
    "street": {
      "id": 978599,
      "name": "On or near Woodside Avenue"
    },
    "longitude": "-0.154786"
  },
  "context": "",
  "outcome_status": {
    "category": "Investigation complete; no suspect identified",
    "date": "2014-05"
  },
  "persistent_id": "e4a8d173a34ff56f101a2247225414bc0c0e853bb4e0649ab74dce2976f57041",
  "id": 29889586,
  "location_subtype": "",
  "month": "2014-02"
}, {
  "category": "vehicle-crime",
  "location_type": "Force",
  "location": {
    "latitude": "51.571549",
    "street": {
      "id": 974877,
      "name": "On or near Gresley Road"
    },
    "longitude": "-0.133257"
  },
  "context": "",
  "outcome_status": {
    "category": "Investigation complete; no suspect identified",
    "date": "2014-02"
  },
  "persistent_id": "d39f59da9807e43a2456c7758273b9e4cb2bb760f864dc26078460aa2ff4a315",
  "id": 29872456,
  "location_subtype": "",
  "month": "2014-02"
}, {
  "category": "violent-crime",
  "location_type": "Force",
  "location": {
    "latitude": "51.569219",
    "street": {
      "id": 972158,
      "name": "On or near Highgate Hill"
    },
    "longitude": "-0.142270"
  },
  "context": "",
  "outcome_status": {
    "category": "Investigation complete; no suspect identified",
    "date": "2014-04"
  },
  "persistent_id": "366028c5f39271de33616f2500f5979073a7d4290e4bdf1594e288e96defec78",
  "id": 29918622,
  "location_subtype": "",
  "month": "2014-02"
}, {
  "category": "violent-crime",
  "location_type": "Force",
  "location": {
    "latitude": "51.566681",
    "street": {
      "id": 972136,
      "name": "On or near Hospital"
    },
    "longitude": "-0.138175"
  },
  "context": "",
  "outcome_status": {
    "category": "Investigation complete; no suspect identified",
    "date": "2014-02"
  },
  "persistent_id": "ff654cb5b175ff8a41faf4e32ea8a6b634931d655ab7b5da44984d36fb94922a",
  "id": 29857331,
  "location_subtype": "",
  "month": "2014-02"
}, {
  "category": "violent-crime",
  "location_type": "Force",
  "location": {
    "latitude": "51.567552",
    "street": {
      "id": 972147,
      "name": "On or near Highgate Hill"
    },
    "longitude": "-0.138659"
  },
  "context": "",
  "outcome_status": {
    "category": "Awaiting court outcome",
    "date": "2014-02"
  },
  "persistent_id": "a9bcd2e067064d16698b5a0e97d9fa4e4464c5bced0df138913df4804c98729c",
  "id": 29871591,
  "location_subtype": "",
  "month": "2014-02"
}, {
  "category": "violent-crime",
  "location_type": "Force",
  "location": {
    "latitude": "51.585679",
    "street": {
      "id": 978600,
      "name": "On or near Muswell Hill Road"
    },
    "longitude": "-0.147113"
  },
  "context": "",
  "outcome_status": {
    "category": "Investigation complete; no suspect identified",
    "date": "2014-02"
  },
  "persistent_id": "64ee020a080f84035aef25881a859a082600d94363ad8f186c8668ee33765f5b",
  "id": 29872318,
  "location_subtype": "",
  "month": "2014-02"
}, {
  "category": "violent-crime",
  "location_type": "Force",
  "location": {
    "latitude": "51.579185",
    "street": {
      "id": 974714,
      "name": "On or near Parkwood Mews"
    },
    "longitude": "-0.145876"
  },
  "context": "",
  "outcome_status": {
    "category": "Investigation complete; no suspect identified",
    "date": "2014-03"
  },
  "persistent_id": "b71364973ffd8e820efe17b7d2be36f756e9fb0d56f1d3f04eb1c4d957fa88ef",
  "id": 29919507,
  "location_subtype": "",
  "month": "2014-02"
}, {
  "category": "violent-crime",
  "location_type": "Force",
  "location": {
    "latitude": "51.566681",
    "street": {
      "id": 972136,
      "name": "On or near Hospital"
    },
    "longitude": "-0.138175"
  },
  "context": "",
  "outcome_status": {
    "category": "Awaiting court outcome",
    "date": "2014-02"
  },
  "persistent_id": "ad7b6c606d715622bd16d0a2b575b4ad41ed103a080630a05516a49b33afe7f4",
  "id": 29836996,
  "location_subtype": "",
  "month": "2014-02"
}, {
  "category": "violent-crime",
  "location_type": "Force",
  "location": {
    "latitude": "51.567552",
    "street": {
      "id": 972147,
      "name": "On or near Highgate Hill"
    },
    "longitude": "-0.138659"
  },
  "context": "",
  "outcome_status": {
    "category": "Investigation complete; no suspect identified",
    "date": "2014-02"
  },
  "persistent_id": "17d9c38dc9aeadda524b3fa6c775330e10a600b0aeb62fe41f72c2d3085ed5eb",
  "id": 29900464,
  "location_subtype": "",
  "month": "2014-02"
}, {
  "category": "violent-crime",
  "location_type": "Force",
  "location": {
    "latitude": "51.566681",
    "street": {
      "id": 972136,
      "name": "On or near Hospital"
    },
    "longitude": "-0.138175"
  },
  "context": "",
  "outcome_status": {
    "category": "Offender given a caution",
    "date": "2014-02"
  },
  "persistent_id": "739c4aa13135fd0f5aa0a16b26f9b659cfb2804105cbc676f638dd17627050df",
  "id": 29897612,
  "location_subtype": "",
  "month": "2014-02"
}, {
  "category": "violent-crime",
  "location_type": "Force",
  "location": {
    "latitude": "51.573254",
    "street": {
      "id": 974697,
      "name": "On or near Ingram Avenue"
    },
    "longitude": "-0.177101"
  },
  "context": "",
  "outcome_status": {
    "category": "Awaiting court outcome",
    "date": "2014-02"
  },
  "persistent_id": "6b1aa20ec4941c3c771055d1f7556e50969f7aa397d1ce6d619f13a5decc1e1b",
  "id": 29914954,
  "location_subtype": "",
  "month": "2014-02"
}, {
  "category": "violent-crime",
  "location_type": "Force",
  "location": {
    "latitude": "51.565757",
    "street": {
      "id": 972121,
      "name": "On or near Magdala Avenue"
    },
    "longitude": "-0.138905"
  },
  "context": "",
  "outcome_status": {
    "category": "Investigation complete; no suspect identified",
    "date": "2014-03"
  },
  "persistent_id": "d033a220b290533a7e394c1ac27eed2a7e9a675fc58a83f6d98570cf938d77e2",
  "id": 29918133,
  "location_subtype": "",
  "month": "2014-02"
}, {
  "category": "violent-crime",
  "location_type": "Force",
  "location": {
    "latitude": "51.575655",
    "street": {
      "id": 974723,
      "name": "On or near Hillcrest"
    },
    "longitude": "-0.149527"
  },
  "context": "",
  "outcome_status": {
    "category": "Under investigation",
    "date": "2014-02"
  },
  "persistent_id": "b61f45e7ebf48dd9e6c5f591615b165564b09b928f02a8f8dcf94c6bb7f1ae7c",
  "id": 29849820,
  "location_subtype": "",
  "month": "2014-02"
}, {
  "category": "violent-crime",
  "location_type": "Force",
  "location": {
    "latitude": "51.573613",
    "street": {
      "id": 974784,
      "name": "On or near Ridgeway Gardens"
    },
    "longitude": "-0.133029"
  },
  "context": "",
  "outcome_status": {
    "category": "Under investigation",
    "date": "2014-02"
  },
  "persistent_id": "9a1e581701bfbff5452b16ff127bc70754996ad5a1206d2defcaf5f5f005458d",
  "id": 29925649,
  "location_subtype": "",
  "month": "2014-02"
}, {
  "category": "violent-crime",
  "location_type": "Force",
  "location": {
    "latitude": "51.566564",
    "street": {
      "id": 972271,
      "name": "On or near Westhill Park"
    },
    "longitude": "-0.155278"
  },
  "context": "",
  "outcome_status": {
    "category": "Investigation complete; no suspect identified",
    "date": "2014-02"
  },
  "persistent_id": "9f7df7ab86b9e8e3981c6d38669e629d75d01bc8ffee57eb477b79f56d6b0cfc",
  "id": 29897246,
  "location_subtype": "",
  "month": "2014-02"
}, {
  "category": "violent-crime",
  "location_type": "Force",
  "location": {
    "latitude": "51.567552",
    "street": {
      "id": 972147,
      "name": "On or near Highgate Hill"
    },
    "longitude": "-0.138659"
  },
  "context": "",
  "outcome_status": {
    "category": "Investigation complete; no suspect identified",
    "date": "2014-04"
  },
  "persistent_id": "3fb2213a36cb92b77fe8eac15e22c482bf1f5a09d86f821f013ed061eba06ecc",
  "id": 29869054,
  "location_subtype": "",
  "month": "2014-02"
}, {
  "category": "violent-crime",
  "location_type": "Force",
  "location": {
    "latitude": "51.567301",
    "street": {
      "id": 972124,
      "name": "On or near Highgate Hill"
    },
    "longitude": "-0.137010"
  },
  "context": "",
  "outcome_status": {
    "category": "Under investigation",
    "date": "2014-02"
  },
  "persistent_id": "12759d4a5ea8b001149a238371801a87ca0b39f2e6f132e342b059828faaba95",
  "id": 29881107,
  "location_subtype": "",
  "month": "2014-02"
}, {
  "category": "violent-crime",
  "location_type": "Force",
  "location": {
    "latitude": "51.572185",
    "street": {
      "id": 974879,
      "name": "On or near Ashmount Road"
    },
    "longitude": "-0.132539"
  },
  "context": "",
  "outcome_status": {
    "category": "Investigation complete; no suspect identified",
    "date": "2014-04"
  },
  "persistent_id": "536a89c8da2a76d06dc4e39fc522aefabf91068d648cd271f6ad1a8b83d4a6b4",
  "id": 29881406,
  "location_subtype": "",
  "month": "2014-02"
}, {
  "category": "violent-crime",
  "location_type": "Force",
  "location": {
    "latitude": "51.575655",
    "street": {
      "id": 974723,
      "name": "On or near Hillcrest"
    },
    "longitude": "-0.149527"
  },
  "context": "",
  "outcome_status": {
    "category": "Under investigation",
    "date": "2014-02"
  },
  "persistent_id": "ce6789d9fed7ccb9ecf93fbc92b6af47a7fe5568ea8e54aba76a5b976503e3f3",
  "id": 29886452,
  "location_subtype": "",
  "month": "2014-02"
}, {
  "category": "other-crime",
  "location_type": "Force",
  "location": {
    "latitude": "51.563863",
    "street": {
      "id": 972276,
      "name": "On or near Millfield Place"
    },
    "longitude": "-0.153353"
  },
  "context": "",
  "outcome_status": {
    "category": "Awaiting court outcome",
    "date": "2014-03"
  },
  "persistent_id": "ee8cc17375eb5f1285f7f0516b3cccb3bdacc0effe9d52f35770cee30656f6ee",
  "id": 29921837,
  "location_subtype": "",
  "month": "2014-02"
}, {
  "category": "other-crime",
  "location_type": "Force",
  "location": {
    "latitude": "51.580973",
    "street": {
      "id": 974719,
      "name": "On or near Muswell Hill Road"
    },
    "longitude": "-0.146915"
  },
  "context": "",
  "outcome_status": {
    "category": "Investigation complete; no suspect identified",
    "date": "2014-02"
  },
  "persistent_id": "8d8035662815a064cec8f0ddc316903129c451c9c04e651bcdfbef8992ff96c5",
  "id": 29925224,
  "location_subtype": "",
  "month": "2014-02"
}]
