[{
  "category": "anti-social-behaviour",
  "location_type": "BTP",
  "location": {
    "latitude": "51.587200",
    "street": {
      "id": 1488689,
      "name": "East Finchley"
    },
    "longitude": "-0.164847"
  },
  "context": "",
  "outcome_status": null,
  "persistent_id": "",
  "id": 32422924,
  "location_subtype": "LU STATION",
  "month": "2014-05"
}, {
  "category": "anti-social-behaviour",
  "location_type": "Force",
  "location": {
    "latitude": "51.569890",
    "street": {
      "id": 972232,
      "name": "On or near Gladsmuir Road"
    },
    "longitude": "-0.134696"
  },
  "context": "",
  "outcome_status": null,
  "persistent_id": "",
  "id": 31815745,
  "location_subtype": "",
  "month": "2014-05"
}, {
  "category": "anti-social-behaviour",
  "location_type": "Force",
  "location": {
    "latitude": "51.576294",
    "street": {
      "id": 974732,
      "name": "On or near Theatre\/concert Hall"
    },
    "longitude": "-0.144450"
  },
  "context": "",
  "outcome_status": null,
  "persistent_id": "",
  "id": 31780775,
  "location_subtype": "",
  "month": "2014-05"
}, {
  "category": "anti-social-behaviour",
  "location_type": "Force",
  "location": {
    "latitude": "51.567552",
    "street": {
      "id": 972147,
      "name": "On or near Highgate Hill"
    },
    "longitude": "-0.138659"
  },
  "context": "",
  "outcome_status": null,
  "persistent_id": "",
  "id": 31815787,
  "location_subtype": "",
  "month": "2014-05"
}, {
  "category": "anti-social-behaviour",
  "location_type": "Force",
  "location": {
    "latitude": "51.574135",
    "street": {
      "id": 974845,
      "name": "On or near Milton Park"
    },
    "longitude": "-0.137596"
  },
  "context": "",
  "outcome_status": null,
  "persistent_id": "",
  "id": 31780690,
  "location_subtype": "",
  "month": "2014-05"
}, {
  "category": "anti-social-behaviour",
  "location_type": "Force",
  "location": {
    "latitude": "51.567552",
    "street": {
      "id": 972147,
      "name": "On or near Highgate Hill"
    },
    "longitude": "-0.138659"
  },
  "context": "",
  "outcome_status": null,
  "persistent_id": "",
  "id": 31815789,
  "location_subtype": "",
  "month": "2014-05"
}, {
  "category": "anti-social-behaviour",
  "location_type": "Force",
  "location": {
    "latitude": "51.564817",
    "street": {
      "id": 972132,
      "name": "On or near Anatola Road"
    },
    "longitude": "-0.140286"
  },
  "context": "",
  "outcome_status": null,
  "persistent_id": "",
  "id": 31815790,
  "location_subtype": "",
  "month": "2014-05"
}, {
  "category": "anti-social-behaviour",
  "location_type": "Force",
  "location": {
    "latitude": "51.564817",
    "street": {
      "id": 972132,
      "name": "On or near Anatola Road"
    },
    "longitude": "-0.140286"
  },
  "context": "",
  "outcome_status": null,
  "persistent_id": "",
  "id": 31815792,
  "location_subtype": "",
  "month": "2014-05"
}, {
  "category": "anti-social-behaviour",
  "location_type": "Force",
  "location": {
    "latitude": "51.569219",
    "street": {
      "id": 972158,
      "name": "On or near Highgate Hill"
    },
    "longitude": "-0.142270"
  },
  "context": "",
  "outcome_status": null,
  "persistent_id": "",
  "id": 31815797,
  "location_subtype": "",
  "month": "2014-05"
}, {
  "category": "anti-social-behaviour",
  "location_type": "Force",
  "location": {
    "latitude": "51.567552",
    "street": {
      "id": 972147,
      "name": "On or near Highgate Hill"
    },
    "longitude": "-0.138659"
  },
  "context": "",
  "outcome_status": null,
  "persistent_id": "",
  "id": 31816685,
  "location_subtype": "",
  "month": "2014-05"
}, {
  "category": "anti-social-behaviour",
  "location_type": "Force",
  "location": {
    "latitude": "51.564519",
    "street": {
      "id": 972108,
      "name": "On or near Raydon Street"
    },
    "longitude": "-0.142505"
  },
  "context": "",
  "outcome_status": null,
  "persistent_id": "",
  "id": 31816687,
  "location_subtype": "",
  "month": "2014-05"
}, {
  "category": "anti-social-behaviour",
  "location_type": "Force",
  "location": {
    "latitude": "51.569219",
    "street": {
      "id": 972158,
      "name": "On or near Highgate Hill"
    },
    "longitude": "-0.142270"
  },
  "context": "",
  "outcome_status": null,
  "persistent_id": "",
  "id": 31816696,
  "location_subtype": "",
  "month": "2014-05"
}, {
  "category": "anti-social-behaviour",
  "location_type": "Force",
  "location": {
    "latitude": "51.569219",
    "street": {
      "id": 972158,
      "name": "On or near Highgate Hill"
    },
    "longitude": "-0.142270"
  },
  "context": "",
  "outcome_status": null,
  "persistent_id": "",
  "id": 31816694,
  "location_subtype": "",
  "month": "2014-05"
}, {
  "category": "anti-social-behaviour",
  "location_type": "Force",
  "location": {
    "latitude": "51.569219",
    "street": {
      "id": 972158,
      "name": "On or near Highgate Hill"
    },
    "longitude": "-0.142270"
  },
  "context": "",
  "outcome_status": null,
  "persistent_id": "",
  "id": 31816692,
  "location_subtype": "",
  "month": "2014-05"
}, {
  "category": "anti-social-behaviour",
  "location_type": "Force",
  "location": {
    "latitude": "51.569219",
    "street": {
      "id": 972158,
      "name": "On or near Highgate Hill"
    },
    "longitude": "-0.142270"
  },
  "context": "",
  "outcome_status": null,
  "persistent_id": "",
  "id": 31816691,
  "location_subtype": "",
  "month": "2014-05"
}, {
  "category": "anti-social-behaviour",
  "location_type": "Force",
  "location": {
    "latitude": "51.569219",
    "street": {
      "id": 972158,
      "name": "On or near Highgate Hill"
    },
    "longitude": "-0.142270"
  },
  "context": "",
  "outcome_status": null,
  "persistent_id": "",
  "id": 31816689,
  "location_subtype": "",
  "month": "2014-05"
}, {
  "category": "anti-social-behaviour",
  "location_type": "Force",
  "location": {
    "latitude": "51.567552",
    "street": {
      "id": 972147,
      "name": "On or near Highgate Hill"
    },
    "longitude": "-0.138659"
  },
  "context": "",
  "outcome_status": null,
  "persistent_id": "",
  "id": 31815785,
  "location_subtype": "",
  "month": "2014-05"
}, {
  "category": "anti-social-behaviour",
  "location_type": "Force",
  "location": {
    "latitude": "51.562374",
    "street": {
      "id": 972272,
      "name": "On or near St Anne's Close"
    },
    "longitude": "-0.150701"
  },
  "context": "",
  "outcome_status": null,
  "persistent_id": "",
  "id": 31810985,
  "location_subtype": "",
  "month": "2014-05"
}, {
  "category": "anti-social-behaviour",
  "location_type": "Force",
  "location": {
    "latitude": "51.562374",
    "street": {
      "id": 972272,
      "name": "On or near St Anne's Close"
    },
    "longitude": "-0.150701"
  },
  "context": "",
  "outcome_status": null,
  "persistent_id": "",
  "id": 31810987,
  "location_subtype": "",
  "month": "2014-05"
}, {
  "category": "anti-social-behaviour",
  "location_type": "Force",
  "location": {
    "latitude": "51.575398",
    "street": {
      "id": 974858,
      "name": "On or near Holmesdale Road"
    },
    "longitude": "-0.141788"
  },
  "context": "",
  "outcome_status": null,
  "persistent_id": "",
  "id": 31780738,
  "location_subtype": "",
  "month": "2014-05"
}, {
  "category": "anti-social-behaviour",
  "location_type": "Force",
  "location": {
    "latitude": "51.568823",
    "street": {
      "id": 972284,
      "name": "On or near Witanhurst Lane"
    },
    "longitude": "-0.151377"
  },
  "context": "",
  "outcome_status": null,
  "persistent_id": "",
  "id": 31811005,
  "location_subtype": "",
  "month": "2014-05"
}, {
  "category": "anti-social-behaviour",
  "location_type": "Force",
  "location": {
    "latitude": "51.566313",
    "street": {
      "id": 972281,
      "name": "On or near Highgate West Hill"
    },
    "longitude": "-0.153614"
  },
  "context": "",
  "outcome_status": null,
  "persistent_id": "",
  "id": 31811029,
  "location_subtype": "",
  "month": "2014-05"
}, {
  "category": "anti-social-behaviour",
  "location_type": "Force",
  "location": {
    "latitude": "51.572518",
    "street": {
      "id": 974871,
      "name": "On or near Cholmeley Crescent"
    },
    "longitude": "-0.144488"
  },
  "context": "",
  "outcome_status": null,
  "persistent_id": "",
  "id": 31780831,
  "location_subtype": "",
  "month": "2014-05"
}, {
  "category": "anti-social-behaviour",
  "location_type": "Force",
  "location": {
    "latitude": "51.575924",
    "street": {
      "id": 974721,
      "name": "On or near Jackson's Lane"
    },
    "longitude": "-0.146615"
  },
  "context": "",
  "outcome_status": null,
  "persistent_id": "",
  "id": 31780844,
  "location_subtype": "",
  "month": "2014-05"
}, {
  "category": "anti-social-behaviour",
  "location_type": "Force",
  "location": {
    "latitude": "51.573510",
    "street": {
      "id": 974762,
      "name": "On or near Castle Yard"
    },
    "longitude": "-0.149210"
  },
  "context": "",
  "outcome_status": null,
  "persistent_id": "",
  "id": 31780888,
  "location_subtype": "",
  "month": "2014-05"
}, {
  "category": "anti-social-behaviour",
  "location_type": "Force",
  "location": {
    "latitude": "51.578685",
    "street": {
      "id": 974733,
      "name": "On or near Police Station"
    },
    "longitude": "-0.150082"
  },
  "context": "",
  "outcome_status": null,
  "persistent_id": "",
  "id": 31780890,
  "location_subtype": "",
  "month": "2014-05"
}, {
  "category": "anti-social-behaviour",
  "location_type": "Force",
  "location": {
    "latitude": "51.576560",
    "street": {
      "id": 974838,
      "name": "On or near Stanhope Gardens"
    },
    "longitude": "-0.138522"
  },
  "context": "",
  "outcome_status": null,
  "persistent_id": "",
  "id": 31780693,
  "location_subtype": "",
  "month": "2014-05"
}, {
  "category": "anti-social-behaviour",
  "location_type": "Force",
  "location": {
    "latitude": "51.589087",
    "street": {
      "id": 978521,
      "name": "On or near Lynmouth Road"
    },
    "longitude": "-0.155622"
  },
  "context": "",
  "outcome_status": null,
  "persistent_id": "",
  "id": 31780910,
  "location_subtype": "",
  "month": "2014-05"
}, {
  "category": "anti-social-behaviour",
  "location_type": "Force",
  "location": {
    "latitude": "51.579260",
    "street": {
      "id": 974744,
      "name": "On or near Gaskell Road"
    },
    "longitude": "-0.156323"
  },
  "context": "",
  "outcome_status": null,
  "persistent_id": "",
  "id": 31780919,
  "location_subtype": "",
  "month": "2014-05"
}, {
  "category": "anti-social-behaviour",
  "location_type": "Force",
  "location": {
    "latitude": "51.583422",
    "street": {
      "id": 974746,
      "name": "On or near Bancroft Avenue"
    },
    "longitude": "-0.163126"
  },
  "context": "",
  "outcome_status": null,
  "persistent_id": "",
  "id": 31780922,
  "location_subtype": "",
  "month": "2014-05"
}, {
  "category": "anti-social-behaviour",
  "location_type": "Force",
  "location": {
    "latitude": "51.583422",
    "street": {
      "id": 974746,
      "name": "On or near Bancroft Avenue"
    },
    "longitude": "-0.163126"
  },
  "context": "",
  "outcome_status": null,
  "persistent_id": "",
  "id": 31780925,
  "location_subtype": "",
  "month": "2014-05"
}, {
  "category": "anti-social-behaviour",
  "location_type": "Force",
  "location": {
    "latitude": "51.572701",
    "street": {
      "id": 974755,
      "name": "On or near Hampstead Lane"
    },
    "longitude": "-0.165261"
  },
  "context": "",
  "outcome_status": null,
  "persistent_id": "",
  "id": 31780928,
  "location_subtype": "",
  "month": "2014-05"
}, {
  "category": "anti-social-behaviour",
  "location_type": "Force",
  "location": {
    "latitude": "51.569708",
    "street": {
      "id": 972327,
      "name": "On or near Spaniards Road"
    },
    "longitude": "-0.174011"
  },
  "context": "",
  "outcome_status": null,
  "persistent_id": "",
  "id": 31792997,
  "location_subtype": "",
  "month": "2014-05"
}, {
  "category": "anti-social-behaviour",
  "location_type": "Force",
  "location": {
    "latitude": "51.586002",
    "street": {
      "id": 978608,
      "name": "On or near Sports\/recreation Area"
    },
    "longitude": "-0.159601"
  },
  "context": "",
  "outcome_status": null,
  "persistent_id": "",
  "id": 31792890,
  "location_subtype": "",
  "month": "2014-05"
}, {
  "category": "anti-social-behaviour",
  "location_type": "Force",
  "location": {
    "latitude": "51.575195",
    "street": {
      "id": 974667,
      "name": "On or near Canons Close"
    },
    "longitude": "-0.170096"
  },
  "context": "",
  "outcome_status": null,
  "persistent_id": "",
  "id": 31792946,
  "location_subtype": "",
  "month": "2014-05"
}, {
  "category": "anti-social-behaviour",
  "location_type": "Force",
  "location": {
    "latitude": "51.584454",
    "street": {
      "id": 974661,
      "name": "On or near Lyttelton Road"
    },
    "longitude": "-0.169912"
  },
  "context": "",
  "outcome_status": null,
  "persistent_id": "",
  "id": 31792950,
  "location_subtype": "",
  "month": "2014-05"
}, {
  "category": "anti-social-behaviour",
  "location_type": "Force",
  "location": {
    "latitude": "51.564519",
    "street": {
      "id": 972108,
      "name": "On or near Raydon Street"
    },
    "longitude": "-0.142505"
  },
  "context": "",
  "outcome_status": null,
  "persistent_id": "",
  "id": 31810873,
  "location_subtype": "",
  "month": "2014-05"
}, {
  "category": "anti-social-behaviour",
  "location_type": "Force",
  "location": {
    "latitude": "51.563776",
    "street": {
      "id": 972112,
      "name": "On or near Chester Road"
    },
    "longitude": "-0.143286"
  },
  "context": "",
  "outcome_status": null,
  "persistent_id": "",
  "id": 31810912,
  "location_subtype": "",
  "month": "2014-05"
}, {
  "category": "anti-social-behaviour",
  "location_type": "Force",
  "location": {
    "latitude": "51.561805",
    "street": {
      "id": 972109,
      "name": "On or near Kingswear Road"
    },
    "longitude": "-0.144852"
  },
  "context": "",
  "outcome_status": null,
  "persistent_id": "",
  "id": 31810926,
  "location_subtype": "",
  "month": "2014-05"
}, {
  "category": "anti-social-behaviour",
  "location_type": "Force",
  "location": {
    "latitude": "51.572858",
    "street": {
      "id": 974862,
      "name": "On or near Wembury Mews"
    },
    "longitude": "-0.139828"
  },
  "context": "",
  "outcome_status": null,
  "persistent_id": "",
  "id": 31780719,
  "location_subtype": "",
  "month": "2014-05"
}, {
  "category": "anti-social-behaviour",
  "location_type": "Force",
  "location": {
    "latitude": "51.572858",
    "street": {
      "id": 974862,
      "name": "On or near Wembury Mews"
    },
    "longitude": "-0.139828"
  },
  "context": "",
  "outcome_status": null,
  "persistent_id": "",
  "id": 31780722,
  "location_subtype": "",
  "month": "2014-05"
}, {
  "category": "anti-social-behaviour",
  "location_type": "Force",
  "location": {
    "latitude": "51.572783",
    "street": {
      "id": 974868,
      "name": "On or near Hornsey Lane Gardens"
    },
    "longitude": "-0.136252"
  },
  "context": "",
  "outcome_status": null,
  "persistent_id": "",
  "id": 31780687,
  "location_subtype": "",
  "month": "2014-05"
}, {
  "category": "anti-social-behaviour",
  "location_type": "Force",
  "location": {
    "latitude": "51.570098",
    "street": {
      "id": 972151,
      "name": "On or near Cromwell Place"
    },
    "longitude": "-0.141037"
  },
  "context": "",
  "outcome_status": null,
  "persistent_id": "",
  "id": 31780725,
  "location_subtype": "",
  "month": "2014-05"
}, {
  "category": "anti-social-behaviour",
  "location_type": "Force",
  "location": {
    "latitude": "51.565544",
    "street": {
      "id": 972275,
      "name": "On or near Oakeshott Avenue"
    },
    "longitude": "-0.149851"
  },
  "context": "",
  "outcome_status": null,
  "persistent_id": "",
  "id": 31810984,
  "location_subtype": "",
  "month": "2014-05"
}, {
  "category": "anti-social-behaviour",
  "location_type": "Force",
  "location": {
    "latitude": "51.575535",
    "street": {
      "id": 974847,
      "name": "On or near Claremont Road"
    },
    "longitude": "-0.137972"
  },
  "context": "",
  "outcome_status": null,
  "persistent_id": "",
  "id": 31780702,
  "location_subtype": "",
  "month": "2014-05"
}, {
  "category": "anti-social-behaviour",
  "location_type": "Force",
  "location": {
    "latitude": "51.567552",
    "street": {
      "id": 972147,
      "name": "On or near Highgate Hill"
    },
    "longitude": "-0.138659"
  },
  "context": "",
  "outcome_status": null,
  "persistent_id": "",
  "id": 31780716,
  "location_subtype": "",
  "month": "2014-05"
}, {
  "category": "anti-social-behaviour",
  "location_type": "Force",
  "location": {
    "latitude": "51.584689",
    "street": {
      "id": 974860,
      "name": "On or near Connaught Gardens"
    },
    "longitude": "-0.139662"
  },
  "context": "",
  "outcome_status": null,
  "persistent_id": "",
  "id": 31780758,
  "location_subtype": "",
  "month": "2014-05"
}, {
  "category": "bicycle-theft",
  "location_type": "Force",
  "location": {
    "latitude": "51.589248",
    "street": {
      "id": 978528,
      "name": "On or near Francis Road"
    },
    "longitude": "-0.156135"
  },
  "context": "",
  "outcome_status": {
    "category": "Under investigation",
    "date": "2014-05"
  },
  "persistent_id": "dba96428efc901c3b52396b60a4ffddecd4814447f310d8f338cc056e37711d6",
  "id": 31728201,
  "location_subtype": "",
  "month": "2014-05"
}, {
  "category": "bicycle-theft",
  "location_type": "Force",
  "location": {
    "latitude": "51.566681",
    "street": {
      "id": 972136,
      "name": "On or near Hospital"
    },
    "longitude": "-0.138175"
  },
  "context": "",
  "outcome_status": {
    "category": "Under investigation",
    "date": "2014-05"
  },
  "persistent_id": "ce82b310225010d9879f9336385892b8369c056853f483807c5d7bad039308cf",
  "id": 31729937,
  "location_subtype": "",
  "month": "2014-05"
}, {
  "category": "bicycle-theft",
  "location_type": "Force",
  "location": {
    "latitude": "51.584113",
    "street": {
      "id": 974720,
      "name": "On or near Lanchester Road"
    },
    "longitude": "-0.154394"
  },
  "context": "",
  "outcome_status": {
    "category": "Under investigation",
    "date": "2014-05"
  },
  "persistent_id": "19114f6a86dca1dbf1348c721bd988a1de103ba75d9fc3d2767c4b4667b92450",
  "id": 31693782,
  "location_subtype": "",
  "month": "2014-05"
}, {
  "category": "bicycle-theft",
  "location_type": "BTP",
  "location": {
    "latitude": "51.587200",
    "street": {
      "id": 1488689,
      "name": "East Finchley"
    },
    "longitude": "-0.164847"
  },
  "context": "",
  "outcome_status": {
    "category": "Under investigation",
    "date": "2014-05"
  },
  "persistent_id": "",
  "id": 32422949,
  "location_subtype": "LU STATION",
  "month": "2014-05"
}, {
  "category": "bicycle-theft",
  "location_type": "Force",
  "location": {
    "latitude": "51.564817",
    "street": {
      "id": 972132,
      "name": "On or near Anatola Road"
    },
    "longitude": "-0.140286"
  },
  "context": "",
  "outcome_status": {
    "category": "Under investigation",
    "date": "2014-05"
  },
  "persistent_id": "a81afdd4f7ace1dfae262cca801f25a8e6ac5d7683da01e503433543ccc90c5b",
  "id": 31706584,
  "location_subtype": "",
  "month": "2014-05"
}, {
  "category": "bicycle-theft",
  "location_type": "Force",
  "location": {
    "latitude": "51.568062",
    "street": {
      "id": 972150,
      "name": "On or near Despard Road"
    },
    "longitude": "-0.137946"
  },
  "context": "",
  "outcome_status": {
    "category": "Investigation complete; no suspect identified",
    "date": "2014-05"
  },
  "persistent_id": "10e98570077b80ab310a8b701120f0928c026d1469903596dbf650efaac7f571",
  "id": 31757787,
  "location_subtype": "",
  "month": "2014-05"
}, {
  "category": "burglary",
  "location_type": "Force",
  "location": {
    "latitude": "51.581924",
    "street": {
      "id": 974749,
      "name": "On or near Archway Road"
    },
    "longitude": "-0.157023"
  },
  "context": "",
  "outcome_status": {
    "category": "Under investigation",
    "date": "2014-05"
  },
  "persistent_id": "3c58c3a2bc43bab1599097a2c66708f414b2552b75de99745d35869605ad39ed",
  "id": 31717854,
  "location_subtype": "",
  "month": "2014-05"
}, {
  "category": "burglary",
  "location_type": "Force",
  "location": {
    "latitude": "51.572321",
    "street": {
      "id": 974863,
      "name": "On or near Tudor Close"
    },
    "longitude": "-0.138320"
  },
  "context": "",
  "outcome_status": {
    "category": "Investigation complete; no suspect identified",
    "date": "2014-05"
  },
  "persistent_id": "1534cfdf9b5122c4439d68abadd9ade6fe7f4ceaadd80a981b062b021f069267",
  "id": 31720430,
  "location_subtype": "",
  "month": "2014-05"
}, {
  "category": "burglary",
  "location_type": "Force",
  "location": {
    "latitude": "51.573595",
    "street": {
      "id": 974846,
      "name": "On or near Milton Avenue"
    },
    "longitude": "-0.138138"
  },
  "context": "",
  "outcome_status": {
    "category": "Under investigation",
    "date": "2014-05"
  },
  "persistent_id": "62714742558e6acfa0e10f7664f8c0da611f5cc1d64ac5b7c0986fb5fa1bde71",
  "id": 31706162,
  "location_subtype": "",
  "month": "2014-05"
}, {
  "category": "burglary",
  "location_type": "Force",
  "location": {
    "latitude": "51.567552",
    "street": {
      "id": 972147,
      "name": "On or near Highgate Hill"
    },
    "longitude": "-0.138659"
  },
  "context": "",
  "outcome_status": {
    "category": "Investigation complete; no suspect identified",
    "date": "2014-05"
  },
  "persistent_id": "f49a83434c365e2ddf9817cbe22a68ef9b451a2ee11d1d64efb835ad01ddaae3",
  "id": 31699544,
  "location_subtype": "",
  "month": "2014-05"
}, {
  "category": "burglary",
  "location_type": "Force",
  "location": {
    "latitude": "51.573241",
    "street": {
      "id": 974867,
      "name": "On or near Langdon Park Road"
    },
    "longitude": "-0.139062"
  },
  "context": "",
  "outcome_status": {
    "category": "Under investigation",
    "date": "2014-05"
  },
  "persistent_id": "d97e17c2271be04020fbb8793c9c2ca43af9030a05d270e8dbf74c54c8d77c51",
  "id": 31711063,
  "location_subtype": "",
  "month": "2014-05"
}, {
  "category": "burglary",
  "location_type": "Force",
  "location": {
    "latitude": "51.573241",
    "street": {
      "id": 974867,
      "name": "On or near Langdon Park Road"
    },
    "longitude": "-0.139062"
  },
  "context": "",
  "outcome_status": {
    "category": "Under investigation",
    "date": "2014-05"
  },
  "persistent_id": "d97e17c2271be04020fbb8793c9c2ca43af9030a05d270e8dbf74c54c8d77c51",
  "id": 31711064,
  "location_subtype": "",
  "month": "2014-05"
}, {
  "category": "burglary",
  "location_type": "Force",
  "location": {
    "latitude": "51.572318",
    "street": {
      "id": 974759,
      "name": "On or near North Grove"
    },
    "longitude": "-0.151192"
  },
  "context": "",
  "outcome_status": {
    "category": "Under investigation",
    "date": "2014-05"
  },
  "persistent_id": "f877d3298ec9fcd1b229829e384c177bb9f19dd2ebad28990e194838c2715608",
  "id": 31720016,
  "location_subtype": "",
  "month": "2014-05"
}, {
  "category": "burglary",
  "location_type": "Force",
  "location": {
    "latitude": "51.567552",
    "street": {
      "id": 972147,
      "name": "On or near Highgate Hill"
    },
    "longitude": "-0.138659"
  },
  "context": "",
  "outcome_status": {
    "category": "Investigation complete; no suspect identified",
    "date": "2014-05"
  },
  "persistent_id": "bada0a4e22c92f934b7bb4a9547288333cb2c5d581b082213d4ab5f51a5bba4c",
  "id": 31720149,
  "location_subtype": "",
  "month": "2014-05"
}, {
  "category": "burglary",
  "location_type": "Force",
  "location": {
    "latitude": "51.585715",
    "street": {
      "id": 978602,
      "name": "On or near Ash Grove"
    },
    "longitude": "-0.144802"
  },
  "context": "",
  "outcome_status": {
    "category": "Under investigation",
    "date": "2014-05"
  },
  "persistent_id": "9b12a997035dda145284f19866d11deec6122c4b0a12bbb771502121bc55bae4",
  "id": 31722679,
  "location_subtype": "",
  "month": "2014-05"
}, {
  "category": "burglary",
  "location_type": "Force",
  "location": {
    "latitude": "51.588026",
    "street": {
      "id": 978517,
      "name": "On or near Southern Road"
    },
    "longitude": "-0.160804"
  },
  "context": "",
  "outcome_status": {
    "category": "Under investigation",
    "date": "2014-05"
  },
  "persistent_id": "f5caec0b4aba556d1d0fe99f35656d94a89f94030d4f67ec8eb6c1d386b1c96a",
  "id": 31748125,
  "location_subtype": "",
  "month": "2014-05"
}, {
  "category": "burglary",
  "location_type": "Force",
  "location": {
    "latitude": "51.566468",
    "street": {
      "id": 972274,
      "name": "On or near Robin Grove"
    },
    "longitude": "-0.152007"
  },
  "context": "",
  "outcome_status": {
    "category": "Under investigation",
    "date": "2014-05"
  },
  "persistent_id": "bbcf2c773b26d12096f40e5471e751b462ba38cae17c338b21ba9c0ec939ca49",
  "id": 31693711,
  "location_subtype": "",
  "month": "2014-05"
}, {
  "category": "burglary",
  "location_type": "Force",
  "location": {
    "latitude": "51.572321",
    "street": {
      "id": 974863,
      "name": "On or near Tudor Close"
    },
    "longitude": "-0.138320"
  },
  "context": "",
  "outcome_status": {
    "category": "Under investigation",
    "date": "2014-05"
  },
  "persistent_id": "2a90a7f41034403993c0a2ceaebcb55a3168f46ec9ab028cef68062dc6e3fd6d",
  "id": 31766063,
  "location_subtype": "",
  "month": "2014-05"
}, {
  "category": "burglary",
  "location_type": "Force",
  "location": {
    "latitude": "51.578169",
    "street": {
      "id": 974839,
      "name": "On or near Shepherd's Hill"
    },
    "longitude": "-0.137893"
  },
  "context": "",
  "outcome_status": {
    "category": "Under investigation",
    "date": "2014-05"
  },
  "persistent_id": "7d6ad26354c9d71aaac6039d53ace6750990fadf66d5874063fe600bc723eb3f",
  "id": 31766087,
  "location_subtype": "",
  "month": "2014-05"
}, {
  "category": "burglary",
  "location_type": "BTP",
  "location": {
    "latitude": "51.587200",
    "street": {
      "id": 1488689,
      "name": "East Finchley"
    },
    "longitude": "-0.164847"
  },
  "context": "",
  "outcome_status": {
    "category": "Under investigation",
    "date": "2014-05"
  },
  "persistent_id": "",
  "id": 32422943,
  "location_subtype": "LU STATION",
  "month": "2014-05"
}, {
  "category": "burglary",
  "location_type": "Force",
  "location": {
    "latitude": "51.573595",
    "street": {
      "id": 974846,
      "name": "On or near Milton Avenue"
    },
    "longitude": "-0.138138"
  },
  "context": "",
  "outcome_status": {
    "category": "Under investigation",
    "date": "2014-05"
  },
  "persistent_id": "5bfbc6386017009c32e01222da3cc169383c6b4894e200b0d0f730f2189579b2",
  "id": 31700088,
  "location_subtype": "",
  "month": "2014-05"
}, {
  "category": "burglary",
  "location_type": "Force",
  "location": {
    "latitude": "51.572292",
    "street": {
      "id": 974864,
      "name": "On or near Ridings Close"
    },
    "longitude": "-0.135348"
  },
  "context": "",
  "outcome_status": {
    "category": "Under investigation",
    "date": "2014-05"
  },
  "persistent_id": "ea64abc0b25862dd17b888527a66e84b470a2fdc4b542775fd41ed40d5cecf5c",
  "id": 31701426,
  "location_subtype": "",
  "month": "2014-05"
}, {
  "category": "burglary",
  "location_type": "Force",
  "location": {
    "latitude": "51.572185",
    "street": {
      "id": 974879,
      "name": "On or near Ashmount Road"
    },
    "longitude": "-0.132539"
  },
  "context": "",
  "outcome_status": {
    "category": "Investigation complete; no suspect identified",
    "date": "2014-05"
  },
  "persistent_id": "7324fd9f429c6fb7f13fd72ffeb913efe6b573e8f595f52b030f8904bb0cde94",
  "id": 31719283,
  "location_subtype": "",
  "month": "2014-05"
}, {
  "category": "burglary",
  "location_type": "Force",
  "location": {
    "latitude": "51.563323",
    "street": {
      "id": 972128,
      "name": "On or near Dartmouth Park Hill"
    },
    "longitude": "-0.140765"
  },
  "context": "",
  "outcome_status": {
    "category": "Under investigation",
    "date": "2014-05"
  },
  "persistent_id": "67cbe8f5d7cbd8ff1c48a313cb7c5e7cf502ae6cdbc5b44d544394e8b55d0548",
  "id": 31710506,
  "location_subtype": "",
  "month": "2014-05"
}, {
  "category": "burglary",
  "location_type": "Force",
  "location": {
    "latitude": "51.584439",
    "street": {
      "id": 974652,
      "name": "On or near Bancroft Avenue"
    },
    "longitude": "-0.165452"
  },
  "context": "",
  "outcome_status": {
    "category": "Under investigation",
    "date": "2014-05"
  },
  "persistent_id": "489c7eb3f208e78fccabc026d459b396e704c7f4cef61b2cbbcf4bbc30edb541",
  "id": 31772424,
  "location_subtype": "",
  "month": "2014-05"
}, {
  "category": "burglary",
  "location_type": "Force",
  "location": {
    "latitude": "51.573241",
    "street": {
      "id": 974867,
      "name": "On or near Langdon Park Road"
    },
    "longitude": "-0.139062"
  },
  "context": "",
  "outcome_status": {
    "category": "Under investigation",
    "date": "2014-05"
  },
  "persistent_id": "d97e17c2271be04020fbb8793c9c2ca43af9030a05d270e8dbf74c54c8d77c51",
  "id": 31711062,
  "location_subtype": "",
  "month": "2014-05"
}, {
  "category": "burglary",
  "location_type": "Force",
  "location": {
    "latitude": "51.576127",
    "street": {
      "id": 974837,
      "name": "On or near Stanhope Road"
    },
    "longitude": "-0.136187"
  },
  "context": "",
  "outcome_status": {
    "category": "Under investigation",
    "date": "2014-05"
  },
  "persistent_id": "8aad4c936c02723fbd78c3fe78c1d2efe20e936c407caef713185ec02fdbf2e0",
  "id": 31714577,
  "location_subtype": "",
  "month": "2014-05"
}, {
  "category": "burglary",
  "location_type": "Force",
  "location": {
    "latitude": "51.568062",
    "street": {
      "id": 972150,
      "name": "On or near Despard Road"
    },
    "longitude": "-0.137946"
  },
  "context": "",
  "outcome_status": {
    "category": "Under investigation",
    "date": "2014-05"
  },
  "persistent_id": "c115aa8f7dcab800564d43acc381eb6d4aeff1df648b8cee79ac6eb8095d6245",
  "id": 31717125,
  "location_subtype": "",
  "month": "2014-05"
}, {
  "category": "burglary",
  "location_type": "Force",
  "location": {
    "latitude": "51.568062",
    "street": {
      "id": 972150,
      "name": "On or near Despard Road"
    },
    "longitude": "-0.137946"
  },
  "context": "",
  "outcome_status": {
    "category": "Under investigation",
    "date": "2014-05"
  },
  "persistent_id": "d4f04a97d63f3565f304d25159e0b11e4f4bf596df2e701405155e4b3d521d73",
  "id": 31717253,
  "location_subtype": "",
  "month": "2014-05"
}, {
  "category": "burglary",
  "location_type": "Force",
  "location": {
    "latitude": "51.567637",
    "street": {
      "id": 972269,
      "name": "On or near Fitzroy Close"
    },
    "longitude": "-0.157139"
  },
  "context": "",
  "outcome_status": {
    "category": "Under investigation",
    "date": "2014-05"
  },
  "persistent_id": "e8f4c4d82777df4c8ea123829750d00ddaed7602459930191d94ee70a09be1be",
  "id": 31718087,
  "location_subtype": "",
  "month": "2014-05"
}, {
  "category": "burglary",
  "location_type": "Force",
  "location": {
    "latitude": "51.567552",
    "street": {
      "id": 972147,
      "name": "On or near Highgate Hill"
    },
    "longitude": "-0.138659"
  },
  "context": "",
  "outcome_status": {
    "category": "Investigation complete; no suspect identified",
    "date": "2014-05"
  },
  "persistent_id": "24b0076ba398d40c76e30506d8c5092278898500b081c626d8c7065d6c69f8d1",
  "id": 31758585,
  "location_subtype": "",
  "month": "2014-05"
}, {
  "category": "burglary",
  "location_type": "Force",
  "location": {
    "latitude": "51.573363",
    "street": {
      "id": 974872,
      "name": "On or near Causton Road"
    },
    "longitude": "-0.142188"
  },
  "context": "",
  "outcome_status": {
    "category": "Under investigation",
    "date": "2014-05"
  },
  "persistent_id": "97dd30bbab17c863912cbbc06e3b9ae022ab617390d9cdc9a4eea56d25304529",
  "id": 31716704,
  "location_subtype": "",
  "month": "2014-05"
}, {
  "category": "burglary",
  "location_type": "Force",
  "location": {
    "latitude": "51.585830",
    "street": {
      "id": 978732,
      "name": "On or near Harford Walk"
    },
    "longitude": "-0.169294"
  },
  "context": "",
  "outcome_status": {
    "category": "Under investigation",
    "date": "2014-05"
  },
  "persistent_id": "f1eb07fb3c770300da3db4049dda9ae1a7cbe12144a975b45f97a6f88b008126",
  "id": 31719035,
  "location_subtype": "",
  "month": "2014-05"
}, {
  "category": "burglary",
  "location_type": "Force",
  "location": {
    "latitude": "51.582028",
    "street": {
      "id": 974747,
      "name": "On or near Aylmer Road"
    },
    "longitude": "-0.161364"
  },
  "context": "",
  "outcome_status": {
    "category": "Under investigation",
    "date": "2014-05"
  },
  "persistent_id": "637c21f9c99b240e31bacbc09296b7fea3ab890b81ca1154a87d0de41a83a405",
  "id": 31736101,
  "location_subtype": "",
  "month": "2014-05"
}, {
  "category": "burglary",
  "location_type": "Force",
  "location": {
    "latitude": "51.577433",
    "street": {
      "id": 974727,
      "name": "On or near Bramalea Close"
    },
    "longitude": "-0.152226"
  },
  "context": "",
  "outcome_status": {
    "category": "Under investigation",
    "date": "2014-05"
  },
  "persistent_id": "2eeba04a8cebe3b8f0a90dbc6837aa7962b5b43847a23fd748403b7670b3ec9f",
  "id": 31751892,
  "location_subtype": "",
  "month": "2014-05"
}, {
  "category": "burglary",
  "location_type": "Force",
  "location": {
    "latitude": "51.572858",
    "street": {
      "id": 974862,
      "name": "On or near Wembury Mews"
    },
    "longitude": "-0.139828"
  },
  "context": "",
  "outcome_status": {
    "category": "Under investigation",
    "date": "2014-05"
  },
  "persistent_id": "cc08ad9706da73c4834d85dc7d7eb7c5ff72d5937af65bd662279e00004dc322",
  "id": 31722798,
  "location_subtype": "",
  "month": "2014-05"
}, {
  "category": "burglary",
  "location_type": "Force",
  "location": {
    "latitude": "51.563058",
    "street": {
      "id": 972283,
      "name": "On or near Bromwich Avenue"
    },
    "longitude": "-0.147903"
  },
  "context": "",
  "outcome_status": {
    "category": "Under investigation",
    "date": "2014-05"
  },
  "persistent_id": "5990ff0e66785beb5810f2618959989e4f1096cec3659384c11573c828db9e5d",
  "id": 31726137,
  "location_subtype": "",
  "month": "2014-05"
}, {
  "category": "burglary",
  "location_type": "Force",
  "location": {
    "latitude": "51.585830",
    "street": {
      "id": 978732,
      "name": "On or near Harford Walk"
    },
    "longitude": "-0.169294"
  },
  "context": "",
  "outcome_status": {
    "category": "Under investigation",
    "date": "2014-05"
  },
  "persistent_id": "474d53a80076eec36eab820be45229fadefed7e55846a5f2dfbf9e76b02e7b0d",
  "id": 31743804,
  "location_subtype": "",
  "month": "2014-05"
}, {
  "category": "burglary",
  "location_type": "Force",
  "location": {
    "latitude": "51.582028",
    "street": {
      "id": 974747,
      "name": "On or near Aylmer Road"
    },
    "longitude": "-0.161364"
  },
  "context": "",
  "outcome_status": {
    "category": "Under investigation",
    "date": "2014-05"
  },
  "persistent_id": "bc899f401d2f6299404ff90ccb6b7fe76bbe90544cc4e16b231d4c1f87bf9fb5",
  "id": 31738953,
  "location_subtype": "",
  "month": "2014-05"
}, {
  "category": "burglary",
  "location_type": "Force",
  "location": {
    "latitude": "51.573551",
    "street": {
      "id": 974799,
      "name": "On or near Hornsey Lane"
    },
    "longitude": "-0.131400"
  },
  "context": "",
  "outcome_status": {
    "category": "Under investigation",
    "date": "2014-05"
  },
  "persistent_id": "be32cf410906406f2b4e4c77c84425bc23b8a9d3e84ccb23551ec20255b1d21c",
  "id": 31734532,
  "location_subtype": "",
  "month": "2014-05"
}, {
  "category": "burglary",
  "location_type": "Force",
  "location": {
    "latitude": "51.573510",
    "street": {
      "id": 974762,
      "name": "On or near Castle Yard"
    },
    "longitude": "-0.149210"
  },
  "context": "",
  "outcome_status": {
    "category": "Under investigation",
    "date": "2014-05"
  },
  "persistent_id": "9664578b0d05f1b6854d7b90e8d723b08d09fbc200005a5ce07482e7d7dd0f8a",
  "id": 31739608,
  "location_subtype": "",
  "month": "2014-05"
}, {
  "category": "burglary",
  "location_type": "Force",
  "location": {
    "latitude": "51.570662",
    "street": {
      "id": 972149,
      "name": "On or near Fitzwarren Gardens"
    },
    "longitude": "-0.136310"
  },
  "context": "",
  "outcome_status": {
    "category": "Under investigation",
    "date": "2014-05"
  },
  "persistent_id": "2b0335d62ffff12a8703a190caa187e98ed27412481e0c382e4b7abdb6203f3b",
  "id": 31730351,
  "location_subtype": "",
  "month": "2014-05"
}, {
  "category": "criminal-damage-arson",
  "location_type": "Force",
  "location": {
    "latitude": "51.563776",
    "street": {
      "id": 972112,
      "name": "On or near Chester Road"
    },
    "longitude": "-0.143286"
  },
  "context": "",
  "outcome_status": {
    "category": "Investigation complete; no suspect identified",
    "date": "2014-05"
  },
  "persistent_id": "34c6b65ca14fedf1622bbaab4f1e9ffcbbe240954ef533a0c39b0385a737c584",
  "id": 31708216,
  "location_subtype": "",
  "month": "2014-05"
}, {
  "category": "criminal-damage-arson",
  "location_type": "Force",
  "location": {
    "latitude": "51.565995",
    "street": {
      "id": 972303,
      "name": "On or near Swain's Lane"
    },
    "longitude": "-0.146557"
  },
  "context": "",
  "outcome_status": {
    "category": "Under investigation",
    "date": "2014-05"
  },
  "persistent_id": "5a1dd9f7ec0e96915d216b139a19a31d7b748feb7db2af964af3958e42666207",
  "id": 31701479,
  "location_subtype": "",
  "month": "2014-05"
}, {
  "category": "criminal-damage-arson",
  "location_type": "Force",
  "location": {
    "latitude": "51.565995",
    "street": {
      "id": 972303,
      "name": "On or near Swain's Lane"
    },
    "longitude": "-0.146557"
  },
  "context": "",
  "outcome_status": {
    "category": "Under investigation",
    "date": "2014-05"
  },
  "persistent_id": "a15a9a6613cbfd1121f1f1e078fd0fb4cc337979016b319ebe5432bcef114cc5",
  "id": 31720279,
  "location_subtype": "",
  "month": "2014-05"
}, {
  "category": "criminal-damage-arson",
  "location_type": "Force",
  "location": {
    "latitude": "51.578895",
    "street": {
      "id": 974704,
      "name": "On or near Wood Lane"
    },
    "longitude": "-0.145729"
  },
  "context": "",
  "outcome_status": {
    "category": "Under investigation",
    "date": "2014-05"
  },
  "persistent_id": "875dbfc8f7384ff14cb0053b293339f651ed893f964dcf8ce9d0f97ac44e5620",
  "id": 31699434,
  "location_subtype": "",
  "month": "2014-05"
}, {
  "category": "criminal-damage-arson",
  "location_type": "Force",
  "location": {
    "latitude": "51.566681",
    "street": {
      "id": 972136,
      "name": "On or near Hospital"
    },
    "longitude": "-0.138175"
  },
  "context": "",
  "outcome_status": {
    "category": "Under investigation",
    "date": "2014-05"
  },
  "persistent_id": "d146d980c5107c4cd3fb161344768cb526e5502ecaa509fbd611efd447d85110",
  "id": 31699228,
  "location_subtype": "",
  "month": "2014-05"
}, {
  "category": "criminal-damage-arson",
  "location_type": "Force",
  "location": {
    "latitude": "51.586677",
    "street": {
      "id": 978598,
      "name": "On or near Pedestrian Subway"
    },
    "longitude": "-0.147058"
  },
  "context": "",
  "outcome_status": {
    "category": "Under investigation",
    "date": "2014-05"
  },
  "persistent_id": "c8df23831f6d505c25750cf8661e3c09147de328f6c77d5974e520fd8ca54761",
  "id": 31695061,
  "location_subtype": "",
  "month": "2014-05"
}, {
  "category": "criminal-damage-arson",
  "location_type": "Force",
  "location": {
    "latitude": "51.563323",
    "street": {
      "id": 972128,
      "name": "On or near Dartmouth Park Hill"
    },
    "longitude": "-0.140765"
  },
  "context": "",
  "outcome_status": {
    "category": "Under investigation",
    "date": "2014-05"
  },
  "persistent_id": "64d0781698ac8906b7d1874ea44ad19e0e66781e53f7f9e6efb48628937ee2d1",
  "id": 31728767,
  "location_subtype": "",
  "month": "2014-05"
}, {
  "category": "criminal-damage-arson",
  "location_type": "Force",
  "location": {
    "latitude": "51.565995",
    "street": {
      "id": 972303,
      "name": "On or near Swain's Lane"
    },
    "longitude": "-0.146557"
  },
  "context": "",
  "outcome_status": {
    "category": "Under investigation",
    "date": "2014-05"
  },
  "persistent_id": "40a03b1abb2ded6a8db4e6d836bcba58c200439f7b03b9a447cd2f6b49841787",
  "id": 31741576,
  "location_subtype": "",
  "month": "2014-05"
}, {
  "category": "criminal-damage-arson",
  "location_type": "Force",
  "location": {
    "latitude": "51.578582",
    "street": {
      "id": 974718,
      "name": "On or near North Hill"
    },
    "longitude": "-0.153824"
  },
  "context": "",
  "outcome_status": {
    "category": "Under investigation",
    "date": "2014-05"
  },
  "persistent_id": "b9750d626aef478264537b2fa50a1f214e00c31f26a00e5a544132e059ac540c",
  "id": 31747744,
  "location_subtype": "",
  "month": "2014-05"
}, {
  "category": "criminal-damage-arson",
  "location_type": "Force",
  "location": {
    "latitude": "51.583435",
    "street": {
      "id": 974653,
      "name": "On or near Aylmer Road"
    },
    "longitude": "-0.166821"
  },
  "context": "",
  "outcome_status": {
    "category": "Under investigation",
    "date": "2014-05"
  },
  "persistent_id": "9d3b03e088e6c088ea81dd1e3338c9438b5bb9a8d6e70e6edbe9ed2f4927a809",
  "id": 31747702,
  "location_subtype": "",
  "month": "2014-05"
}, {
  "category": "criminal-damage-arson",
  "location_type": "Force",
  "location": {
    "latitude": "51.565995",
    "street": {
      "id": 972303,
      "name": "On or near Swain's Lane"
    },
    "longitude": "-0.146557"
  },
  "context": "",
  "outcome_status": {
    "category": "Under investigation",
    "date": "2014-05"
  },
  "persistent_id": "d0dbf76deeddc8f0adf53bc9afc5a684817c17e0fb126dc62205a5e457fb8a8a",
  "id": 31745421,
  "location_subtype": "",
  "month": "2014-05"
}, {
  "category": "criminal-damage-arson",
  "location_type": "Force",
  "location": {
    "latitude": "51.568823",
    "street": {
      "id": 972284,
      "name": "On or near Witanhurst Lane"
    },
    "longitude": "-0.151377"
  },
  "context": "",
  "outcome_status": {
    "category": "Investigation complete; no suspect identified",
    "date": "2014-05"
  },
  "persistent_id": "8d252be79fd4b00464a4145cc746ac1689bf825e76c35f0147237cafaf17043a",
  "id": 31732851,
  "location_subtype": "",
  "month": "2014-05"
}, {
  "category": "criminal-damage-arson",
  "location_type": "Force",
  "location": {
    "latitude": "51.567804",
    "street": {
      "id": 972142,
      "name": "On or near Pauntley Street"
    },
    "longitude": "-0.135258"
  },
  "context": "",
  "outcome_status": {
    "category": "Investigation complete; no suspect identified",
    "date": "2014-05"
  },
  "persistent_id": "8a4f5b78fb9d04ff687106667d6654421f0502d9244c04ec88b08880b8a7a3e4",
  "id": 31714836,
  "location_subtype": "",
  "month": "2014-05"
}, {
  "category": "criminal-damage-arson",
  "location_type": "Force",
  "location": {
    "latitude": "51.565995",
    "street": {
      "id": 972303,
      "name": "On or near Swain's Lane"
    },
    "longitude": "-0.146557"
  },
  "context": "",
  "outcome_status": {
    "category": "Investigation complete; no suspect identified",
    "date": "2014-05"
  },
  "persistent_id": "1549c108bb5a32077864938b6a55a88b6233857e9c9ee202ccbddb4959ec8a0c",
  "id": 31715533,
  "location_subtype": "",
  "month": "2014-05"
}, {
  "category": "criminal-damage-arson",
  "location_type": "Force",
  "location": {
    "latitude": "51.567552",
    "street": {
      "id": 972147,
      "name": "On or near Highgate Hill"
    },
    "longitude": "-0.138659"
  },
  "context": "",
  "outcome_status": {
    "category": "Offender sent to prison",
    "date": "2014-05"
  },
  "persistent_id": "4e7ce6696c4cfd5f91d18e41315ca0f40ecae17d0a5c54ab96c12c6d79de970f",
  "id": 31757763,
  "location_subtype": "",
  "month": "2014-05"
}, {
  "category": "criminal-damage-arson",
  "location_type": "Force",
  "location": {
    "latitude": "51.587400",
    "street": {
      "id": 978524,
      "name": "On or near Ingram Road"
    },
    "longitude": "-0.162749"
  },
  "context": "",
  "outcome_status": {
    "category": "Investigation complete; no suspect identified",
    "date": "2014-05"
  },
  "persistent_id": "28784ed45a552823cd6c486d87050d3f3cc8935d2c8103f97b278887fe34f8a8",
  "id": 31733886,
  "location_subtype": "",
  "month": "2014-05"
}, {
  "category": "criminal-damage-arson",
  "location_type": "Force",
  "location": {
    "latitude": "51.567355",
    "street": {
      "id": 972279,
      "name": "On or near Holly Lodge Gardens"
    },
    "longitude": "-0.152360"
  },
  "context": "",
  "outcome_status": {
    "category": "Under investigation",
    "date": "2014-05"
  },
  "persistent_id": "5293fb0ac6f59913105c5cf4764e999f1bdbc55163aaa1708455213578c4c28e",
  "id": 31703851,
  "location_subtype": "",
  "month": "2014-05"
}, {
  "category": "criminal-damage-arson",
  "location_type": "Force",
  "location": {
    "latitude": "51.575655",
    "street": {
      "id": 974723,
      "name": "On or near Hillcrest"
    },
    "longitude": "-0.149527"
  },
  "context": "",
  "outcome_status": {
    "category": "Under investigation",
    "date": "2014-05"
  },
  "persistent_id": "3af0e3d6c813284fcd0bcd5d2b557b173e5e02b1426fd1d0c829eefcda8cd5cc",
  "id": 31757624,
  "location_subtype": "",
  "month": "2014-05"
}, {
  "category": "criminal-damage-arson",
  "location_type": "Force",
  "location": {
    "latitude": "51.564817",
    "street": {
      "id": 972132,
      "name": "On or near Anatola Road"
    },
    "longitude": "-0.140286"
  },
  "context": "",
  "outcome_status": {
    "category": "Under investigation",
    "date": "2014-05"
  },
  "persistent_id": "e62038631c3a860061697c0d083524c2b4d397b8df95eb9e9c2b61d93994b99f",
  "id": 31737495,
  "location_subtype": "",
  "month": "2014-05"
}, {
  "category": "criminal-damage-arson",
  "location_type": "Force",
  "location": {
    "latitude": "51.571984",
    "street": {
      "id": 974865,
      "name": "On or near Oldfield Mews"
    },
    "longitude": "-0.136357"
  },
  "context": "",
  "outcome_status": {
    "category": "Under investigation",
    "date": "2014-05"
  },
  "persistent_id": "700dbf06c3b92a84fae94d91d65117cbb3f347764a33f17c6a51fe667bf9c42a",
  "id": 31721566,
  "location_subtype": "",
  "month": "2014-05"
}, {
  "category": "criminal-damage-arson",
  "location_type": "Force",
  "location": {
    "latitude": "51.565995",
    "street": {
      "id": 972303,
      "name": "On or near Swain's Lane"
    },
    "longitude": "-0.146557"
  },
  "context": "",
  "outcome_status": {
    "category": "Investigation complete; no suspect identified",
    "date": "2014-05"
  },
  "persistent_id": "de0a7af9d6c204fa63b36b9025ecd8176a974985ea544a7c2dc2a7922eebd2b8",
  "id": 31693379,
  "location_subtype": "",
  "month": "2014-05"
}, {
  "category": "drugs",
  "location_type": "Force",
  "location": {
    "latitude": "51.567552",
    "street": {
      "id": 972147,
      "name": "On or near Highgate Hill"
    },
    "longitude": "-0.138659"
  },
  "context": "",
  "outcome_status": {
    "category": "Offender given a drugs possession warning",
    "date": "2014-05"
  },
  "persistent_id": "1161dff09f8292e5b29cd18539299d256e3eb5701dad8c0d24b97b0d618a095d",
  "id": 31693894,
  "location_subtype": "",
  "month": "2014-05"
}, {
  "category": "drugs",
  "location_type": "Force",
  "location": {
    "latitude": "51.575655",
    "street": {
      "id": 974723,
      "name": "On or near Hillcrest"
    },
    "longitude": "-0.149527"
  },
  "context": "",
  "outcome_status": {
    "category": "Under investigation",
    "date": "2014-05"
  },
  "persistent_id": "d165c03a9e50b866f7728d7a50b577cff31d8406989a3431535e54824634e976",
  "id": 31706438,
  "location_subtype": "",
  "month": "2014-05"
}, {
  "category": "drugs",
  "location_type": "Force",
  "location": {
    "latitude": "51.576714",
    "street": {
      "id": 974855,
      "name": "On or near Shepherd's Close"
    },
    "longitude": "-0.141979"
  },
  "context": "",
  "outcome_status": {
    "category": "Offender given a drugs possession warning",
    "date": "2014-05"
  },
  "persistent_id": "e7c21564ad1bb34ecf89556d52388e59207825ad31137c32b563f3cee934f9a8",
  "id": 31719320,
  "location_subtype": "",
  "month": "2014-05"
}, {
  "category": "drugs",
  "location_type": "Force",
  "location": {
    "latitude": "51.569883",
    "street": {
      "id": 972138,
      "name": "On or near Whitehall Park"
    },
    "longitude": "-0.135981"
  },
  "context": "",
  "outcome_status": {
    "category": "Offender given a drugs possession warning",
    "date": "2014-05"
  },
  "persistent_id": "4580bf21e68c12c840b97d8b36e7405957d974bc67c0cdc1821e22c3d5138355",
  "id": 31701116,
  "location_subtype": "",
  "month": "2014-05"
}, {
  "category": "drugs",
  "location_type": "Force",
  "location": {
    "latitude": "51.587071",
    "street": {
      "id": 978428,
      "name": "On or near Ellington Road"
    },
    "longitude": "-0.142408"
  },
  "context": "",
  "outcome_status": {
    "category": "Under investigation",
    "date": "2014-05"
  },
  "persistent_id": "b0d05d6bc2dca14a14c09b51fc6bbc7101f5fb873f92627fdf2a7688e3ec820e",
  "id": 31736788,
  "location_subtype": "",
  "month": "2014-05"
}, {
  "category": "other-theft",
  "location_type": "Force",
  "location": {
    "latitude": "51.566681",
    "street": {
      "id": 972136,
      "name": "On or near Hospital"
    },
    "longitude": "-0.138175"
  },
  "context": "",
  "outcome_status": {
    "category": "Under investigation",
    "date": "2014-05"
  },
  "persistent_id": "bddf57dad332864b2e93d2c4f32ad74a5cd70e85482144c49527ad66273ecd40",
  "id": 31710229,
  "location_subtype": "",
  "month": "2014-05"
}, {
  "category": "other-theft",
  "location_type": "Force",
  "location": {
    "latitude": "51.580593",
    "street": {
      "id": 974730,
      "name": "On or near Baker's Lane"
    },
    "longitude": "-0.154768"
  },
  "context": "",
  "outcome_status": {
    "category": "Investigation complete; no suspect identified",
    "date": "2014-05"
  },
  "persistent_id": "c03c6a75ad169f2e547d8003a05ad4875188c5cb9e2257258b4abb2aaee0a0cc",
  "id": 31695428,
  "location_subtype": "",
  "month": "2014-05"
}, {
  "category": "other-theft",
  "location_type": "Force",
  "location": {
    "latitude": "51.572521",
    "street": {
      "id": 974754,
      "name": "On or near Hampstead Lane"
    },
    "longitude": "-0.165268"
  },
  "context": "",
  "outcome_status": {
    "category": "Under investigation",
    "date": "2014-05"
  },
  "persistent_id": "2ab4dc95b32e54948b7245e15b151bffd53cdd463f96de0cda59558bd99de714",
  "id": 31718133,
  "location_subtype": "",
  "month": "2014-05"
}, {
  "category": "other-theft",
  "location_type": "Force",
  "location": {
    "latitude": "51.573551",
    "street": {
      "id": 974799,
      "name": "On or near Hornsey Lane"
    },
    "longitude": "-0.131400"
  },
  "context": "",
  "outcome_status": {
    "category": "Local resolution",
    "date": "2014-05"
  },
  "persistent_id": "cb5a470b2b58294364b86314863616b377016210faedbd1b5376c542ef0519a2",
  "id": 31705655,
  "location_subtype": "",
  "month": "2014-05"
}, {
  "category": "other-theft",
  "location_type": "Force",
  "location": {
    "latitude": "51.573728",
    "street": {
      "id": 974764,
      "name": "On or near Sports\/recreation Area"
    },
    "longitude": "-0.153920"
  },
  "context": "",
  "outcome_status": {
    "category": "Investigation complete; no suspect identified",
    "date": "2014-05"
  },
  "persistent_id": "02d390cae596acf1d080823de61581b19194e05ae28c1623b471b907f461714b",
  "id": 31710502,
  "location_subtype": "",
  "month": "2014-05"
}, {
  "category": "other-theft",
  "location_type": "Force",
  "location": {
    "latitude": "51.575655",
    "street": {
      "id": 974723,
      "name": "On or near Hillcrest"
    },
    "longitude": "-0.149527"
  },
  "context": "",
  "outcome_status": {
    "category": "Under investigation",
    "date": "2014-05"
  },
  "persistent_id": "5022fab8f3922c420ac069c1b504089207ceff5b83ed83cf1d3c37713cc50f6e",
  "id": 31700757,
  "location_subtype": "",
  "month": "2014-05"
}, {
  "category": "other-theft",
  "location_type": "Force",
  "location": {
    "latitude": "51.576739",
    "street": {
      "id": 974854,
      "name": "On or near Shepherd's Hill"
    },
    "longitude": "-0.144172"
  },
  "context": "",
  "outcome_status": {
    "category": "Investigation complete; no suspect identified",
    "date": "2014-05"
  },
  "persistent_id": "8c401dcbfc36bc7de75c18a2ebc3bef33ac1edd21e8693da5648909a7efe2f8b",
  "id": 31720051,
  "location_subtype": "",
  "month": "2014-05"
}, {
  "category": "other-theft",
  "location_type": "Force",
  "location": {
    "latitude": "51.566681",
    "street": {
      "id": 972136,
      "name": "On or near Hospital"
    },
    "longitude": "-0.138175"
  },
  "context": "",
  "outcome_status": {
    "category": "Investigation complete; no suspect identified",
    "date": "2014-05"
  },
  "persistent_id": "7689389e7921fd2dc2e0b0114b14e3f9ef6e23bbbf3f37be72ec37f4f1d6b75d",
  "id": 31715036,
  "location_subtype": "",
  "month": "2014-05"
}, {
  "category": "other-theft",
  "location_type": "Force",
  "location": {
    "latitude": "51.567552",
    "street": {
      "id": 972147,
      "name": "On or near Highgate Hill"
    },
    "longitude": "-0.138659"
  },
  "context": "",
  "outcome_status": {
    "category": "Under investigation",
    "date": "2014-05"
  },
  "persistent_id": "3d7e634e8d6b041b45943c7f77acc624e3057d62b32ce2deb5a2e4f5c3040ce5",
  "id": 31707975,
  "location_subtype": "",
  "month": "2014-05"
}, {
  "category": "other-theft",
  "location_type": "Force",
  "location": {
    "latitude": "51.566468",
    "street": {
      "id": 972274,
      "name": "On or near Robin Grove"
    },
    "longitude": "-0.152007"
  },
  "context": "",
  "outcome_status": {
    "category": "Under investigation",
    "date": "2014-05"
  },
  "persistent_id": "8d9cc394b3e017388c7c8cb78110e235b6f8ac1975a6a39ca7f5ce62d73c3a94",
  "id": 31767404,
  "location_subtype": "",
  "month": "2014-05"
}, {
  "category": "other-theft",
  "location_type": "Force",
  "location": {
    "latitude": "51.567552",
    "street": {
      "id": 972147,
      "name": "On or near Highgate Hill"
    },
    "longitude": "-0.138659"
  },
  "context": "",
  "outcome_status": {
    "category": "Under investigation",
    "date": "2014-05"
  },
  "persistent_id": "26293d6679fb8485a927f57a10ec1d514cc252bb48a5af08521fb9f86a9d8855",
  "id": 31767274,
  "location_subtype": "",
  "month": "2014-05"
}, {
  "category": "other-theft",
  "location_type": "Force",
  "location": {
    "latitude": "51.585679",
    "street": {
      "id": 978600,
      "name": "On or near Muswell Hill Road"
    },
    "longitude": "-0.147113"
  },
  "context": "",
  "outcome_status": {
    "category": "Under investigation",
    "date": "2014-05"
  },
  "persistent_id": "887b34e7e9f4236d39063fc65f31ec8ba3bd916f9036cb59d1a35fadd6db9da2",
  "id": 31727046,
  "location_subtype": "",
  "month": "2014-05"
}, {
  "category": "other-theft",
  "location_type": "Force",
  "location": {
    "latitude": "51.580261",
    "street": {
      "id": 974840,
      "name": "On or near Queen's Wood Road"
    },
    "longitude": "-0.140002"
  },
  "context": "",
  "outcome_status": {
    "category": "Investigation complete; no suspect identified",
    "date": "2014-05"
  },
  "persistent_id": "988b63da9910017588f454664611142edc0b1d81a71a4459b5b9c9850a30437a",
  "id": 31766234,
  "location_subtype": "",
  "month": "2014-05"
}, {
  "category": "other-theft",
  "location_type": "Force",
  "location": {
    "latitude": "51.569219",
    "street": {
      "id": 972158,
      "name": "On or near Highgate Hill"
    },
    "longitude": "-0.142270"
  },
  "context": "",
  "outcome_status": {
    "category": "Under investigation",
    "date": "2014-05"
  },
  "persistent_id": "161cd216344cf849648d154a179f7b529de34373215a9fe398e5ac7956652ea1",
  "id": 31728084,
  "location_subtype": "",
  "month": "2014-05"
}, {
  "category": "other-theft",
  "location_type": "Force",
  "location": {
    "latitude": "51.580593",
    "street": {
      "id": 974730,
      "name": "On or near Baker's Lane"
    },
    "longitude": "-0.154768"
  },
  "context": "",
  "outcome_status": {
    "category": "Under investigation",
    "date": "2014-05"
  },
  "persistent_id": "4ae2dfbe729548ddcff621b358d1336260061f111d9d44894ca4c134e8df9287",
  "id": 31725268,
  "location_subtype": "",
  "month": "2014-05"
}, {
  "category": "other-theft",
  "location_type": "Force",
  "location": {
    "latitude": "51.567552",
    "street": {
      "id": 972147,
      "name": "On or near Highgate Hill"
    },
    "longitude": "-0.138659"
  },
  "context": "",
  "outcome_status": {
    "category": "Under investigation",
    "date": "2014-05"
  },
  "persistent_id": "d61a02d5841080b6ef9908041be85c77e78d6c0e95105d4468acc172d518821c",
  "id": 31718092,
  "location_subtype": "",
  "month": "2014-05"
}, {
  "category": "other-theft",
  "location_type": "Force",
  "location": {
    "latitude": "51.589309",
    "street": {
      "id": 978532,
      "name": "On or near Eastern Road"
    },
    "longitude": "-0.156638"
  },
  "context": "",
  "outcome_status": {
    "category": "Under investigation",
    "date": "2014-05"
  },
  "persistent_id": "c60f8ba38cd4a7807c4a99f0fe93aac634d2e92dfaad02884180b39463c3b753",
  "id": 31725479,
  "location_subtype": "",
  "month": "2014-05"
}, {
  "category": "other-theft",
  "location_type": "Force",
  "location": {
    "latitude": "51.573728",
    "street": {
      "id": 974764,
      "name": "On or near Sports\/recreation Area"
    },
    "longitude": "-0.153920"
  },
  "context": "",
  "outcome_status": {
    "category": "Under investigation",
    "date": "2014-05"
  },
  "persistent_id": "58692c238378162dbc2f9366ccd0bfbae99aadbe4e02f7f70e9321275e342265",
  "id": 31757709,
  "location_subtype": "",
  "month": "2014-05"
}, {
  "category": "other-theft",
  "location_type": "Force",
  "location": {
    "latitude": "51.575250",
    "street": {
      "id": 974726,
      "name": "On or near Broadlands Close"
    },
    "longitude": "-0.152329"
  },
  "context": "",
  "outcome_status": {
    "category": "Under investigation",
    "date": "2014-05"
  },
  "persistent_id": "ab0671e81b4a14411ae7bef5d4e1eed20f0b4a0c9acdb23f7b64c2d4836cc603",
  "id": 31722678,
  "location_subtype": "",
  "month": "2014-05"
}, {
  "category": "other-theft",
  "location_type": "Force",
  "location": {
    "latitude": "51.567637",
    "street": {
      "id": 972269,
      "name": "On or near Fitzroy Close"
    },
    "longitude": "-0.157139"
  },
  "context": "",
  "outcome_status": {
    "category": "Under investigation",
    "date": "2014-05"
  },
  "persistent_id": "1acedee9573e9e46f4b4be04c1097b04e09d668320b9236072a2b5152452cda5",
  "id": 31730057,
  "location_subtype": "",
  "month": "2014-05"
}, {
  "category": "other-theft",
  "location_type": "Force",
  "location": {
    "latitude": "51.564817",
    "street": {
      "id": 972132,
      "name": "On or near Anatola Road"
    },
    "longitude": "-0.140286"
  },
  "context": "",
  "outcome_status": {
    "category": "Under investigation",
    "date": "2014-05"
  },
  "persistent_id": "69ad22d4fe095cb2f0d0c720e13b0f1640cd92d1f278322d55bf524231921363",
  "id": 31747851,
  "location_subtype": "",
  "month": "2014-05"
}, {
  "category": "other-theft",
  "location_type": "Force",
  "location": {
    "latitude": "51.567301",
    "street": {
      "id": 972124,
      "name": "On or near Highgate Hill"
    },
    "longitude": "-0.137010"
  },
  "context": "",
  "outcome_status": {
    "category": "Under investigation",
    "date": "2014-05"
  },
  "persistent_id": "6e52156e331f2a5d164eb1b3f7f2c299cbb424ec22e2dd2e848358d24a51fd64",
  "id": 31748330,
  "location_subtype": "",
  "month": "2014-05"
}, {
  "category": "other-theft",
  "location_type": "Force",
  "location": {
    "latitude": "51.567552",
    "street": {
      "id": 972147,
      "name": "On or near Highgate Hill"
    },
    "longitude": "-0.138659"
  },
  "context": "",
  "outcome_status": {
    "category": "Under investigation",
    "date": "2014-05"
  },
  "persistent_id": "9bcd4ff1a997615157e4b3822f39806edd66035cb01f7df89af43f837511e964",
  "id": 31748308,
  "location_subtype": "",
  "month": "2014-05"
}, {
  "category": "other-theft",
  "location_type": "Force",
  "location": {
    "latitude": "51.564817",
    "street": {
      "id": 972132,
      "name": "On or near Anatola Road"
    },
    "longitude": "-0.140286"
  },
  "context": "",
  "outcome_status": {
    "category": "Under investigation",
    "date": "2014-05"
  },
  "persistent_id": "e474ad93139ef42622f298fbbd992dd5cb49f8f8ad14b62f66694e9c8a3c1087",
  "id": 31748295,
  "location_subtype": "",
  "month": "2014-05"
}, {
  "category": "other-theft",
  "location_type": "Force",
  "location": {
    "latitude": "51.570180",
    "street": {
      "id": 972287,
      "name": "On or near South Grove"
    },
    "longitude": "-0.149605"
  },
  "context": "",
  "outcome_status": {
    "category": "Investigation complete; no suspect identified",
    "date": "2014-05"
  },
  "persistent_id": "afd3fde15ada5f7c7c9f6b84c638188d1695e312241fd2adfa13e17b376d44bc",
  "id": 31752430,
  "location_subtype": "",
  "month": "2014-05"
}, {
  "category": "other-theft",
  "location_type": "Force",
  "location": {
    "latitude": "51.567552",
    "street": {
      "id": 972147,
      "name": "On or near Highgate Hill"
    },
    "longitude": "-0.138659"
  },
  "context": "",
  "outcome_status": {
    "category": "Under investigation",
    "date": "2014-05"
  },
  "persistent_id": "1e3389a67ee37cbd1e60b161200c7b9b0636aff0ba440966d33d43d1b25d5f6e",
  "id": 31704209,
  "location_subtype": "",
  "month": "2014-05"
}, {
  "category": "other-theft",
  "location_type": "Force",
  "location": {
    "latitude": "51.567552",
    "street": {
      "id": 972147,
      "name": "On or near Highgate Hill"
    },
    "longitude": "-0.138659"
  },
  "context": "",
  "outcome_status": {
    "category": "Under investigation",
    "date": "2014-05"
  },
  "persistent_id": "434ef1e808ee30387561a9816e5daa58311433825c12efe0d23ee8a43f2f0a6b",
  "id": 31703865,
  "location_subtype": "",
  "month": "2014-05"
}, {
  "category": "other-theft",
  "location_type": "Force",
  "location": {
    "latitude": "51.566681",
    "street": {
      "id": 972136,
      "name": "On or near Hospital"
    },
    "longitude": "-0.138175"
  },
  "context": "",
  "outcome_status": {
    "category": "Investigation complete; no suspect identified",
    "date": "2014-05"
  },
  "persistent_id": "e9f9f6f81e1c212196943b9cbdff46ac0a66c788adff45b62832b5fcfe8a4b2a",
  "id": 31744529,
  "location_subtype": "",
  "month": "2014-05"
}, {
  "category": "other-theft",
  "location_type": "Force",
  "location": {
    "latitude": "51.567552",
    "street": {
      "id": 972147,
      "name": "On or near Highgate Hill"
    },
    "longitude": "-0.138659"
  },
  "context": "",
  "outcome_status": {
    "category": "Under investigation",
    "date": "2014-05"
  },
  "persistent_id": "4a14a5a67e6d40e418c1c6012807c65c89cdd4d290da0022eb364f330fb4fbef",
  "id": 31698506,
  "location_subtype": "",
  "month": "2014-05"
}, {
  "category": "other-theft",
  "location_type": "Force",
  "location": {
    "latitude": "51.581495",
    "street": {
      "id": 974740,
      "name": "On or near Sheldon Avenue"
    },
    "longitude": "-0.157777"
  },
  "context": "",
  "outcome_status": {
    "category": "Under investigation",
    "date": "2014-05"
  },
  "persistent_id": "529ea28739e5e23ab48e43856b67d720a7f5dfda7b065bfc9661ab60661efe88",
  "id": 31740330,
  "location_subtype": "",
  "month": "2014-05"
}, {
  "category": "other-theft",
  "location_type": "Force",
  "location": {
    "latitude": "51.571023",
    "street": {
      "id": 972288,
      "name": "On or near Highgate High Street"
    },
    "longitude": "-0.148921"
  },
  "context": "",
  "outcome_status": {
    "category": "Under investigation",
    "date": "2014-05"
  },
  "persistent_id": "6ea5e526f291ca157d771108f975d05524396c28ae5176531bf88508b4153eb1",
  "id": 31747747,
  "location_subtype": "",
  "month": "2014-05"
}, {
  "category": "other-theft",
  "location_type": "Force",
  "location": {
    "latitude": "51.580261",
    "street": {
      "id": 974840,
      "name": "On or near Queen's Wood Road"
    },
    "longitude": "-0.140002"
  },
  "context": "",
  "outcome_status": {
    "category": "Investigation complete; no suspect identified",
    "date": "2014-05"
  },
  "persistent_id": "40c5e01599f0c240a50205dc87b29c1c791ba4092190c6bda862d01ea67a835d",
  "id": 31736948,
  "location_subtype": "",
  "month": "2014-05"
}, {
  "category": "public-order",
  "location_type": "Force",
  "location": {
    "latitude": "51.573363",
    "street": {
      "id": 974872,
      "name": "On or near Causton Road"
    },
    "longitude": "-0.142188"
  },
  "context": "",
  "outcome_status": {
    "category": "Investigation complete; no suspect identified",
    "date": "2014-05"
  },
  "persistent_id": "807f555c8061c5afd14e179351fef6fa7d6364768ebebc0807df3892890d1f16",
  "id": 31743888,
  "location_subtype": "",
  "month": "2014-05"
}, {
  "category": "public-order",
  "location_type": "Force",
  "location": {
    "latitude": "51.575136",
    "street": {
      "id": 974842,
      "name": "On or near Orchard Road"
    },
    "longitude": "-0.140600"
  },
  "context": "",
  "outcome_status": {
    "category": "Investigation complete; no suspect identified",
    "date": "2014-05"
  },
  "persistent_id": "ba1fe252600ea6e41b5f3a4ab0b0f77ee0d14bf47103f7e3fe2857fe340561ce",
  "id": 31734490,
  "location_subtype": "",
  "month": "2014-05"
}, {
  "category": "public-order",
  "location_type": "Force",
  "location": {
    "latitude": "51.566681",
    "street": {
      "id": 972136,
      "name": "On or near Hospital"
    },
    "longitude": "-0.138175"
  },
  "context": "",
  "outcome_status": {
    "category": "Under investigation",
    "date": "2014-05"
  },
  "persistent_id": "d7736cbb8b29fd593aee172eca4d58b8aa8ae5f21ac42ab9b85b72ec415ac72d",
  "id": 31732000,
  "location_subtype": "",
  "month": "2014-05"
}, {
  "category": "public-order",
  "location_type": "Force",
  "location": {
    "latitude": "51.573363",
    "street": {
      "id": 974872,
      "name": "On or near Causton Road"
    },
    "longitude": "-0.142188"
  },
  "context": "",
  "outcome_status": {
    "category": "Under investigation",
    "date": "2014-05"
  },
  "persistent_id": "855bb74b13f608ba23d42869ceed79a929567ecaedabe540fdd01dd8de377535",
  "id": 31725419,
  "location_subtype": "",
  "month": "2014-05"
}, {
  "category": "public-order",
  "location_type": "Force",
  "location": {
    "latitude": "51.566681",
    "street": {
      "id": 972136,
      "name": "On or near Hospital"
    },
    "longitude": "-0.138175"
  },
  "context": "",
  "outcome_status": {
    "category": "Under investigation",
    "date": "2014-05"
  },
  "persistent_id": "d7736cbb8b29fd593aee172eca4d58b8aa8ae5f21ac42ab9b85b72ec415ac72d",
  "id": 31732001,
  "location_subtype": "",
  "month": "2014-05"
}, {
  "category": "public-order",
  "location_type": "Force",
  "location": {
    "latitude": "51.566681",
    "street": {
      "id": 972136,
      "name": "On or near Hospital"
    },
    "longitude": "-0.138175"
  },
  "context": "",
  "outcome_status": {
    "category": "Under investigation",
    "date": "2014-05"
  },
  "persistent_id": "d7736cbb8b29fd593aee172eca4d58b8aa8ae5f21ac42ab9b85b72ec415ac72d",
  "id": 31731999,
  "location_subtype": "",
  "month": "2014-05"
}, {
  "category": "public-order",
  "location_type": "Force",
  "location": {
    "latitude": "51.566681",
    "street": {
      "id": 972136,
      "name": "On or near Hospital"
    },
    "longitude": "-0.138175"
  },
  "context": "",
  "outcome_status": {
    "category": "Offender sent to prison",
    "date": "2014-05"
  },
  "persistent_id": "d7736cbb8b29fd593aee172eca4d58b8aa8ae5f21ac42ab9b85b72ec415ac72d",
  "id": 31732002,
  "location_subtype": "",
  "month": "2014-05"
}, {
  "category": "public-order",
  "location_type": "Force",
  "location": {
    "latitude": "51.567552",
    "street": {
      "id": 972147,
      "name": "On or near Highgate Hill"
    },
    "longitude": "-0.138659"
  },
  "context": "",
  "outcome_status": {
    "category": "Investigation complete; no suspect identified",
    "date": "2014-05"
  },
  "persistent_id": "09cbd7adf588373f41f424794f5090bd650d688a770f92e93128c776f915400c",
  "id": 31758583,
  "location_subtype": "",
  "month": "2014-05"
}, {
  "category": "robbery",
  "location_type": "Force",
  "location": {
    "latitude": "51.573473",
    "street": {
      "id": 974861,
      "name": "On or near Wembury Road"
    },
    "longitude": "-0.140062"
  },
  "context": "",
  "outcome_status": {
    "category": "Investigation complete; no suspect identified",
    "date": "2014-05"
  },
  "persistent_id": "9719ea9be8e5058dc716ea5c6160d726c00bc89e728ff8311d167918add2dc7c",
  "id": 31710066,
  "location_subtype": "",
  "month": "2014-05"
}, {
  "category": "robbery",
  "location_type": "Force",
  "location": {
    "latitude": "51.563323",
    "street": {
      "id": 972128,
      "name": "On or near Dartmouth Park Hill"
    },
    "longitude": "-0.140765"
  },
  "context": "",
  "outcome_status": {
    "category": "Under investigation",
    "date": "2014-05"
  },
  "persistent_id": "591b01f2ee8f5a81b09c1dfbc30a47580658f74ffd16d51ba933282ed8b6b9d9",
  "id": 31719479,
  "location_subtype": "",
  "month": "2014-05"
}, {
  "category": "robbery",
  "location_type": "Force",
  "location": {
    "latitude": "51.568243",
    "street": {
      "id": 972153,
      "name": "On or near Archway Road"
    },
    "longitude": "-0.136336"
  },
  "context": "",
  "outcome_status": {
    "category": "Investigation complete; no suspect identified",
    "date": "2014-05"
  },
  "persistent_id": "a0a6ec800230aff42f7aa8f624813d9346294327ab419ef0d35aea4cc823972e",
  "id": 31698263,
  "location_subtype": "",
  "month": "2014-05"
}, {
  "category": "robbery",
  "location_type": "Force",
  "location": {
    "latitude": "51.573254",
    "street": {
      "id": 974697,
      "name": "On or near Ingram Avenue"
    },
    "longitude": "-0.177101"
  },
  "context": "",
  "outcome_status": {
    "category": "Under investigation",
    "date": "2014-05"
  },
  "persistent_id": "6c38a8cc2fc80e070b92afd0dc1aed21fcfa7cc72d2e3526d7ebf67734ca9d8a",
  "id": 31694132,
  "location_subtype": "",
  "month": "2014-05"
}, {
  "category": "robbery",
  "location_type": "Force",
  "location": {
    "latitude": "51.573254",
    "street": {
      "id": 974697,
      "name": "On or near Ingram Avenue"
    },
    "longitude": "-0.177101"
  },
  "context": "",
  "outcome_status": {
    "category": "Under investigation",
    "date": "2014-05"
  },
  "persistent_id": "6c38a8cc2fc80e070b92afd0dc1aed21fcfa7cc72d2e3526d7ebf67734ca9d8a",
  "id": 31694133,
  "location_subtype": "",
  "month": "2014-05"
}, {
  "category": "shoplifting",
  "location_type": "Force",
  "location": {
    "latitude": "51.572858",
    "street": {
      "id": 974862,
      "name": "On or near Wembury Mews"
    },
    "longitude": "-0.139828"
  },
  "context": "",
  "outcome_status": {
    "category": "Under investigation",
    "date": "2014-05"
  },
  "persistent_id": "cdbadfe77a2d703ce43631eb107f33ac8bb12b5b36bcb71c3c76b9a563a31a1c",
  "id": 31757473,
  "location_subtype": "",
  "month": "2014-05"
}, {
  "category": "shoplifting",
  "location_type": "Force",
  "location": {
    "latitude": "51.562374",
    "street": {
      "id": 972272,
      "name": "On or near St Anne's Close"
    },
    "longitude": "-0.150701"
  },
  "context": "",
  "outcome_status": {
    "category": "Awaiting court outcome",
    "date": "2014-05"
  },
  "persistent_id": "6078a1cd6395c57adb11b606a3a7d11df4dcf39e40cf541b320acb0eceb97d56",
  "id": 31710114,
  "location_subtype": "",
  "month": "2014-05"
}, {
  "category": "theft-from-the-person",
  "location_type": "Force",
  "location": {
    "latitude": "51.577476",
    "street": {
      "id": 974702,
      "name": "On or near Parking Area"
    },
    "longitude": "-0.145830"
  },
  "context": "",
  "outcome_status": {
    "category": "Under investigation",
    "date": "2014-05"
  },
  "persistent_id": "a5fd57873911cfd545c0da1c8976c29253638bb484996b85ca7edfcacc521b26",
  "id": 31717442,
  "location_subtype": "",
  "month": "2014-05"
}, {
  "category": "theft-from-the-person",
  "location_type": "Force",
  "location": {
    "latitude": "51.566681",
    "street": {
      "id": 972136,
      "name": "On or near Hospital"
    },
    "longitude": "-0.138175"
  },
  "context": "",
  "outcome_status": {
    "category": "Investigation complete; no suspect identified",
    "date": "2014-05"
  },
  "persistent_id": "5a44dc104f536786acd92ed374cec9d7da406efc8c17efabe88c3806a925297e",
  "id": 31758412,
  "location_subtype": "",
  "month": "2014-05"
}, {
  "category": "theft-from-the-person",
  "location_type": "Force",
  "location": {
    "latitude": "51.572292",
    "street": {
      "id": 974864,
      "name": "On or near Ridings Close"
    },
    "longitude": "-0.135348"
  },
  "context": "",
  "outcome_status": {
    "category": "Under investigation",
    "date": "2014-05"
  },
  "persistent_id": "33b29b6b262792e38ed44b1c3fd69e369c03363ccfb8daa6d25cfced8b1b0ee7",
  "id": 31742141,
  "location_subtype": "",
  "month": "2014-05"
}, {
  "category": "theft-from-the-person",
  "location_type": "Force",
  "location": {
    "latitude": "51.567301",
    "street": {
      "id": 972124,
      "name": "On or near Highgate Hill"
    },
    "longitude": "-0.137010"
  },
  "context": "",
  "outcome_status": {
    "category": "Investigation complete; no suspect identified",
    "date": "2014-05"
  },
  "persistent_id": "d0ee0ce2de8f6bd4101b86b6dc56990ef3907ba8357260d7aca9be8eb071147e",
  "id": 31693950,
  "location_subtype": "",
  "month": "2014-05"
}, {
  "category": "theft-from-the-person",
  "location_type": "Force",
  "location": {
    "latitude": "51.576294",
    "street": {
      "id": 974732,
      "name": "On or near Theatre\/concert Hall"
    },
    "longitude": "-0.144450"
  },
  "context": "",
  "outcome_status": {
    "category": "Under investigation",
    "date": "2014-05"
  },
  "persistent_id": "17096dcfd61f36598a94a901b6a3fa455440dbd8a7a3c825201701ea96f716ef",
  "id": 31713836,
  "location_subtype": "",
  "month": "2014-05"
}, {
  "category": "theft-from-the-person",
  "location_type": "Force",
  "location": {
    "latitude": "51.577653",
    "street": {
      "id": 974729,
      "name": "On or near Bishops Road"
    },
    "longitude": "-0.149619"
  },
  "context": "",
  "outcome_status": {
    "category": "Under investigation",
    "date": "2014-05"
  },
  "persistent_id": "5eedd3b72faec92a88f6384ed228fb4118feb37a2b5588b72e3498aa600ea6d6",
  "id": 31703379,
  "location_subtype": "",
  "month": "2014-05"
}, {
  "category": "vehicle-crime",
  "location_type": "Force",
  "location": {
    "latitude": "51.576373",
    "street": {
      "id": 974711,
      "name": "On or near Southwood Lane"
    },
    "longitude": "-0.147708"
  },
  "context": "",
  "outcome_status": {
    "category": "Under investigation",
    "date": "2014-05"
  },
  "persistent_id": "71f7592b949f1820c97651f957802fdb42988c700c10cd0e0d170492c6cfcdb9",
  "id": 31766014,
  "location_subtype": "",
  "month": "2014-05"
}, {
  "category": "vehicle-crime",
  "location_type": "Force",
  "location": {
    "latitude": "51.573363",
    "street": {
      "id": 974872,
      "name": "On or near Causton Road"
    },
    "longitude": "-0.142188"
  },
  "context": "",
  "outcome_status": {
    "category": "Under investigation",
    "date": "2014-05"
  },
  "persistent_id": "b122d626f346871c0764eaaecd79029026aa57383eb4224912b7974139243c65",
  "id": 31739610,
  "location_subtype": "",
  "month": "2014-05"
}, {
  "category": "vehicle-crime",
  "location_type": "Force",
  "location": {
    "latitude": "51.585564",
    "street": {
      "id": 978506,
      "name": "On or near Woodland Rise"
    },
    "longitude": "-0.143221"
  },
  "context": "",
  "outcome_status": {
    "category": "Under investigation",
    "date": "2014-05"
  },
  "persistent_id": "a1a8bd3b14a18eb9dc73a69b1bcefeaacceb6b310eed1dfd3b7d074f7cde4554",
  "id": 31725569,
  "location_subtype": "",
  "month": "2014-05"
}, {
  "category": "vehicle-crime",
  "location_type": "Force",
  "location": {
    "latitude": "51.578259",
    "street": {
      "id": 974848,
      "name": "On or near Broughton Gardens"
    },
    "longitude": "-0.136187"
  },
  "context": "",
  "outcome_status": {
    "category": "Under investigation",
    "date": "2014-05"
  },
  "persistent_id": "a970c6927d30bf76cd0c710ef04ab7b390b23e5f902f98761ca18c19c4fbe40b",
  "id": 31757662,
  "location_subtype": "",
  "month": "2014-05"
}, {
  "category": "vehicle-crime",
  "location_type": "Force",
  "location": {
    "latitude": "51.584719",
    "street": {
      "id": 974752,
      "name": "On or near The Drive"
    },
    "longitude": "-0.158657"
  },
  "context": "",
  "outcome_status": {
    "category": "Under investigation",
    "date": "2014-05"
  },
  "persistent_id": "9c0843b1ef3164b0358d07d91b6eeae9457fce3009466930ba54453cf0bc75ee",
  "id": 31721437,
  "location_subtype": "",
  "month": "2014-05"
}, {
  "category": "vehicle-crime",
  "location_type": "Force",
  "location": {
    "latitude": "51.573473",
    "street": {
      "id": 974861,
      "name": "On or near Wembury Road"
    },
    "longitude": "-0.140062"
  },
  "context": "",
  "outcome_status": {
    "category": "Under investigation",
    "date": "2014-05"
  },
  "persistent_id": "d15efee6ff8c0c1616230c834b0d1ba38391938e1a99edd1cfbc810522fc3406",
  "id": 31757682,
  "location_subtype": "",
  "month": "2014-05"
}, {
  "category": "vehicle-crime",
  "location_type": "Force",
  "location": {
    "latitude": "51.588539",
    "street": {
      "id": 978557,
      "name": "On or near Lauradale Road"
    },
    "longitude": "-0.153955"
  },
  "context": "",
  "outcome_status": {
    "category": "Under investigation",
    "date": "2014-05"
  },
  "persistent_id": "eec59ed544acb5a9c2c786a9fd3671c4e1ae557ccd75a241ef01f72cbbc6acc1",
  "id": 31757712,
  "location_subtype": "",
  "month": "2014-05"
}, {
  "category": "vehicle-crime",
  "location_type": "Force",
  "location": {
    "latitude": "51.587400",
    "street": {
      "id": 978524,
      "name": "On or near Ingram Road"
    },
    "longitude": "-0.162749"
  },
  "context": "",
  "outcome_status": {
    "category": "Under investigation",
    "date": "2014-05"
  },
  "persistent_id": "99588b33b33c7c95c8c87e00ebd926b2fb39f7ecd1d60215bae5cc79b79dfdce",
  "id": 31719031,
  "location_subtype": "",
  "month": "2014-05"
}, {
  "category": "vehicle-crime",
  "location_type": "Force",
  "location": {
    "latitude": "51.563215",
    "street": {
      "id": 972114,
      "name": "On or near Bertram Street"
    },
    "longitude": "-0.143049"
  },
  "context": "",
  "outcome_status": {
    "category": "Under investigation",
    "date": "2014-05"
  },
  "persistent_id": "f0d35718a5329b78863f3ba6a0d474dda1cec622f1036e3dd89dcc0617a48ec4",
  "id": 31758641,
  "location_subtype": "",
  "month": "2014-05"
}, {
  "category": "vehicle-crime",
  "location_type": "Force",
  "location": {
    "latitude": "51.574376",
    "street": {
      "id": 974843,
      "name": "On or near Northwood Road"
    },
    "longitude": "-0.140300"
  },
  "context": "",
  "outcome_status": {
    "category": "Under investigation",
    "date": "2014-05"
  },
  "persistent_id": "763fbeb3de9c5a6a2328792e11bcc380ad816b6a9f52b1bc8b03094e2ab5cd1c",
  "id": 31766033,
  "location_subtype": "",
  "month": "2014-05"
}, {
  "category": "vehicle-crime",
  "location_type": "Force",
  "location": {
    "latitude": "51.576870",
    "street": {
      "id": 974739,
      "name": "On or near Sheldon Avenue"
    },
    "longitude": "-0.160475"
  },
  "context": "",
  "outcome_status": {
    "category": "Under investigation",
    "date": "2014-05"
  },
  "persistent_id": "df9252681a7ea50d2512c52cf977eecd4ca1f122d3184cea944ac7fe47a2bd93",
  "id": 31766041,
  "location_subtype": "",
  "month": "2014-05"
}, {
  "category": "vehicle-crime",
  "location_type": "Force",
  "location": {
    "latitude": "51.575535",
    "street": {
      "id": 974847,
      "name": "On or near Claremont Road"
    },
    "longitude": "-0.137972"
  },
  "context": "",
  "outcome_status": {
    "category": "Under investigation",
    "date": "2014-05"
  },
  "persistent_id": "2c124150e1f6af6a9699e59fd3f75964a44b0e7fed3f261b6fa6c8b6168802be",
  "id": 31717836,
  "location_subtype": "",
  "month": "2014-05"
}, {
  "category": "vehicle-crime",
  "location_type": "Force",
  "location": {
    "latitude": "51.588893",
    "street": {
      "id": 978582,
      "name": "On or near Birchwood Avenue"
    },
    "longitude": "-0.148484"
  },
  "context": "",
  "outcome_status": {
    "category": "Under investigation",
    "date": "2014-05"
  },
  "persistent_id": "77d676eea4e78a7d2eef4a7309a2c120a5403a107bfd38247e6d0ee3f2a6c04f",
  "id": 31766071,
  "location_subtype": "",
  "month": "2014-05"
}, {
  "category": "vehicle-crime",
  "location_type": "Force",
  "location": {
    "latitude": "51.573910",
    "street": {
      "id": 974756,
      "name": "On or near Compton Avenue"
    },
    "longitude": "-0.165515"
  },
  "context": "",
  "outcome_status": {
    "category": "Under investigation",
    "date": "2014-05"
  },
  "persistent_id": "0130f6ca4a9699e5bb4e070ee649c7021e74262353b6c9b801973786a2308dfe",
  "id": 31766222,
  "location_subtype": "",
  "month": "2014-05"
}, {
  "category": "vehicle-crime",
  "location_type": "Force",
  "location": {
    "latitude": "51.571984",
    "street": {
      "id": 974865,
      "name": "On or near Oldfield Mews"
    },
    "longitude": "-0.136357"
  },
  "context": "",
  "outcome_status": {
    "category": "Under investigation",
    "date": "2014-05"
  },
  "persistent_id": "20d73f9f6f78233c5acd442ae01d161490ef9b5a4442bb1b27dd66d48fc7e757",
  "id": 31714240,
  "location_subtype": "",
  "month": "2014-05"
}, {
  "category": "vehicle-crime",
  "location_type": "Force",
  "location": {
    "latitude": "51.574376",
    "street": {
      "id": 974843,
      "name": "On or near Northwood Road"
    },
    "longitude": "-0.140300"
  },
  "context": "",
  "outcome_status": {
    "category": "Under investigation",
    "date": "2014-05"
  },
  "persistent_id": "048c8978b750ffcab4a54538dc6c5595b7dc434dad775c2a06ad7745c0f21892",
  "id": 31766295,
  "location_subtype": "",
  "month": "2014-05"
}, {
  "category": "vehicle-crime",
  "location_type": "Force",
  "location": {
    "latitude": "51.569287",
    "street": {
      "id": 972270,
      "name": "On or near Fitzroy Park"
    },
    "longitude": "-0.156293"
  },
  "context": "",
  "outcome_status": {
    "category": "Under investigation",
    "date": "2014-05"
  },
  "persistent_id": "9d45aa2a7e3574cf71d9f89d9918d6a4282d4bde82169d7bd3bf805a617c8bcb",
  "id": 31767536,
  "location_subtype": "",
  "month": "2014-05"
}, {
  "category": "vehicle-crime",
  "location_type": "Force",
  "location": {
    "latitude": "51.568961",
    "street": {
      "id": 972221,
      "name": "On or near Parolles Road"
    },
    "longitude": "-0.133392"
  },
  "context": "",
  "outcome_status": {
    "category": "Under investigation",
    "date": "2014-05"
  },
  "persistent_id": "72427727e4e8cddc0bd8b4f46a538ff7e821810abb62ad64f3ca4b5aacab59bc",
  "id": 31709077,
  "location_subtype": "",
  "month": "2014-05"
}, {
  "category": "vehicle-crime",
  "location_type": "Force",
  "location": {
    "latitude": "51.563058",
    "street": {
      "id": 972283,
      "name": "On or near Bromwich Avenue"
    },
    "longitude": "-0.147903"
  },
  "context": "",
  "outcome_status": {
    "category": "Under investigation",
    "date": "2014-05"
  },
  "persistent_id": "8df4e596bf95305de3180aa66afeeca7926fa061b07ded8a959848f052a4f37f",
  "id": 31706909,
  "location_subtype": "",
  "month": "2014-05"
}, {
  "category": "vehicle-crime",
  "location_type": "Force",
  "location": {
    "latitude": "51.573254",
    "street": {
      "id": 974697,
      "name": "On or near Ingram Avenue"
    },
    "longitude": "-0.177101"
  },
  "context": "",
  "outcome_status": {
    "category": "Under investigation",
    "date": "2014-05"
  },
  "persistent_id": "446bd76774814ba32c7df14c25f41d5b12d23f5615bbf20ccec02d3bc1884113",
  "id": 31707065,
  "location_subtype": "",
  "month": "2014-05"
}, {
  "category": "vehicle-crime",
  "location_type": "Force",
  "location": {
    "latitude": "51.568062",
    "street": {
      "id": 972150,
      "name": "On or near Despard Road"
    },
    "longitude": "-0.137946"
  },
  "context": "",
  "outcome_status": {
    "category": "Under investigation",
    "date": "2014-05"
  },
  "persistent_id": "8dc518cc8e95177590b3fb8792765ad320b83b9e44230a4b59a4a5d27cd33e6d",
  "id": 31772596,
  "location_subtype": "",
  "month": "2014-05"
}, {
  "category": "vehicle-crime",
  "location_type": "Force",
  "location": {
    "latitude": "51.573728",
    "street": {
      "id": 974764,
      "name": "On or near Sports\/recreation Area"
    },
    "longitude": "-0.153920"
  },
  "context": "",
  "outcome_status": {
    "category": "Under investigation",
    "date": "2014-05"
  },
  "persistent_id": "f01095c99e33a641d345b08227925a476e7139f14c5a1c8d992818d601fc2797",
  "id": 31773740,
  "location_subtype": "",
  "month": "2014-05"
}, {
  "category": "vehicle-crime",
  "location_type": "Force",
  "location": {
    "latitude": "51.588440",
    "street": {
      "id": 978562,
      "name": "On or near Grand Avenue"
    },
    "longitude": "-0.150538"
  },
  "context": "",
  "outcome_status": {
    "category": "Investigation complete; no suspect identified",
    "date": "2014-05"
  },
  "persistent_id": "ed3fcbf640e93dcd040f7526a7f9ed18cb5d15fd0fc8e0e27c788b729346a174",
  "id": 31714154,
  "location_subtype": "",
  "month": "2014-05"
}, {
  "category": "vehicle-crime",
  "location_type": "Force",
  "location": {
    "latitude": "51.576560",
    "street": {
      "id": 974838,
      "name": "On or near Stanhope Gardens"
    },
    "longitude": "-0.138522"
  },
  "context": "",
  "outcome_status": {
    "category": "Under investigation",
    "date": "2014-05"
  },
  "persistent_id": "a27b136ff2e0fd0e8318749e7385205b0a51f082868b7f70f9e21415f8a27cd7",
  "id": 31695391,
  "location_subtype": "",
  "month": "2014-05"
}, {
  "category": "vehicle-crime",
  "location_type": "Force",
  "location": {
    "latitude": "51.575544",
    "street": {
      "id": 974850,
      "name": "On or near Sports\/recreation Area"
    },
    "longitude": "-0.135100"
  },
  "context": "",
  "outcome_status": {
    "category": "Under investigation",
    "date": "2014-05"
  },
  "persistent_id": "31336036cc4e99c2b2b65b4ede8ed8207df865da9ddac9fbfd1c4df926bb80bf",
  "id": 31702517,
  "location_subtype": "",
  "month": "2014-05"
}, {
  "category": "vehicle-crime",
  "location_type": "Force",
  "location": {
    "latitude": "51.571549",
    "street": {
      "id": 974877,
      "name": "On or near Gresley Road"
    },
    "longitude": "-0.133257"
  },
  "context": "",
  "outcome_status": {
    "category": "Under investigation",
    "date": "2014-05"
  },
  "persistent_id": "4feef23937f7fc0f4e4b68ae6f683c4bf96c6ed48edf322b0fb1ee3d6038c747",
  "id": 31696325,
  "location_subtype": "",
  "month": "2014-05"
}, {
  "category": "vehicle-crime",
  "location_type": "Force",
  "location": {
    "latitude": "51.564519",
    "street": {
      "id": 972108,
      "name": "On or near Raydon Street"
    },
    "longitude": "-0.142505"
  },
  "context": "",
  "outcome_status": {
    "category": "Under investigation",
    "date": "2014-05"
  },
  "persistent_id": "4304a38bbb6cf88f8a8498cdcd00a8530e8a4fd541c3b047da4c9bc177c7b5d6",
  "id": 31696299,
  "location_subtype": "",
  "month": "2014-05"
}, {
  "category": "vehicle-crime",
  "location_type": "Force",
  "location": {
    "latitude": "51.576870",
    "street": {
      "id": 974739,
      "name": "On or near Sheldon Avenue"
    },
    "longitude": "-0.160475"
  },
  "context": "",
  "outcome_status": {
    "category": "Under investigation",
    "date": "2014-05"
  },
  "persistent_id": "4c9f5e415cb4a1abf5f8bd7f198de86aa06030da1ac94fe92eeee647a4bff8b6",
  "id": 31695711,
  "location_subtype": "",
  "month": "2014-05"
}, {
  "category": "vehicle-crime",
  "location_type": "Force",
  "location": {
    "latitude": "51.588539",
    "street": {
      "id": 978557,
      "name": "On or near Lauradale Road"
    },
    "longitude": "-0.153955"
  },
  "context": "",
  "outcome_status": {
    "category": "Under investigation",
    "date": "2014-05"
  },
  "persistent_id": "5dd8f8a91736741ccdd3be829bacb43e2340b77f787dcd973bcb6e769486230f",
  "id": 31694480,
  "location_subtype": "",
  "month": "2014-05"
}, {
  "category": "vehicle-crime",
  "location_type": "Force",
  "location": {
    "latitude": "51.573363",
    "street": {
      "id": 974872,
      "name": "On or near Causton Road"
    },
    "longitude": "-0.142188"
  },
  "context": "",
  "outcome_status": {
    "category": "Under investigation",
    "date": "2014-05"
  },
  "persistent_id": "89e91f6ca798a158526fddd3083174d854aa323b40d1aeb4ed298a90dd36c382",
  "id": 31766300,
  "location_subtype": "",
  "month": "2014-05"
}, {
  "category": "vehicle-crime",
  "location_type": "Force",
  "location": {
    "latitude": "51.578259",
    "street": {
      "id": 974848,
      "name": "On or near Broughton Gardens"
    },
    "longitude": "-0.136187"
  },
  "context": "",
  "outcome_status": {
    "category": "Under investigation",
    "date": "2014-05"
  },
  "persistent_id": "03dc26ec7751f00473b86bdbc6d4b258237936244547537deeb674d153c70237",
  "id": 31757545,
  "location_subtype": "",
  "month": "2014-05"
}, {
  "category": "vehicle-crime",
  "location_type": "Force",
  "location": {
    "latitude": "51.570071",
    "street": {
      "id": 972294,
      "name": "On or near Bisham Gardens"
    },
    "longitude": "-0.147272"
  },
  "context": "",
  "outcome_status": {
    "category": "Under investigation",
    "date": "2014-05"
  },
  "persistent_id": "7d08f837696ad1269760cd9948329eca84848bd9bc70a3621d78fea46c02a44e",
  "id": 31693523,
  "location_subtype": "",
  "month": "2014-05"
}, {
  "category": "vehicle-crime",
  "location_type": "Force",
  "location": {
    "latitude": "51.575180",
    "street": {
      "id": 974712,
      "name": "On or near Southwood Avenue"
    },
    "longitude": "-0.145058"
  },
  "context": "",
  "outcome_status": {
    "category": "Under investigation",
    "date": "2014-05"
  },
  "persistent_id": "46118bc2696484b90435eb2094530c55113dfc28471627182d2b3523f1fdbe0b",
  "id": 31747632,
  "location_subtype": "",
  "month": "2014-05"
}, {
  "category": "vehicle-crime",
  "location_type": "Force",
  "location": {
    "latitude": "51.565995",
    "street": {
      "id": 972303,
      "name": "On or near Swain's Lane"
    },
    "longitude": "-0.146557"
  },
  "context": "",
  "outcome_status": {
    "category": "Under investigation",
    "date": "2014-05"
  },
  "persistent_id": "4cad9dae16b9ddfca9ecd1f521eac5d5cf9f62304cdc48db1678e75451b5e50a",
  "id": 31726219,
  "location_subtype": "",
  "month": "2014-05"
}, {
  "category": "vehicle-crime",
  "location_type": "Force",
  "location": {
    "latitude": "51.578165",
    "street": {
      "id": 974654,
      "name": "On or near Winnington Road"
    },
    "longitude": "-0.174307"
  },
  "context": "",
  "outcome_status": {
    "category": "Under investigation",
    "date": "2014-05"
  },
  "persistent_id": "65cda59a266d44b69288428b1c13cc8f749f92b0f4f9b5005f01b063dc53e711",
  "id": 31729554,
  "location_subtype": "",
  "month": "2014-05"
}, {
  "category": "vehicle-crime",
  "location_type": "Force",
  "location": {
    "latitude": "51.567637",
    "street": {
      "id": 972269,
      "name": "On or near Fitzroy Close"
    },
    "longitude": "-0.157139"
  },
  "context": "",
  "outcome_status": {
    "category": "Under investigation",
    "date": "2014-05"
  },
  "persistent_id": "3313c8ba19dfd8ffb8f0800194ac0050922180d9025460363ae5a74f394b01ab",
  "id": 31720865,
  "location_subtype": "",
  "month": "2014-05"
}, {
  "category": "vehicle-crime",
  "location_type": "Force",
  "location": {
    "latitude": "51.573363",
    "street": {
      "id": 974872,
      "name": "On or near Causton Road"
    },
    "longitude": "-0.142188"
  },
  "context": "",
  "outcome_status": {
    "category": "Under investigation",
    "date": "2014-05"
  },
  "persistent_id": "54abc3e5a75c6f46c9b978cf2cd10eaf2dc1bc03d62b62a694848ee832e9489e",
  "id": 31707897,
  "location_subtype": "",
  "month": "2014-05"
}, {
  "category": "vehicle-crime",
  "location_type": "Force",
  "location": {
    "latitude": "51.585679",
    "street": {
      "id": 978600,
      "name": "On or near Muswell Hill Road"
    },
    "longitude": "-0.147113"
  },
  "context": "",
  "outcome_status": {
    "category": "Under investigation",
    "date": "2014-05"
  },
  "persistent_id": "9e3902082dc5c6596bfbeeda2b03d9782e8d153ab7be691e71bc71ed55c8fa41",
  "id": 31714158,
  "location_subtype": "",
  "month": "2014-05"
}, {
  "category": "vehicle-crime",
  "location_type": "Force",
  "location": {
    "latitude": "51.572701",
    "street": {
      "id": 974755,
      "name": "On or near Hampstead Lane"
    },
    "longitude": "-0.165261"
  },
  "context": "",
  "outcome_status": {
    "category": "Under investigation",
    "date": "2014-05"
  },
  "persistent_id": "df7a4575198bf4a987672f2ee182fdee6624d0b85b914e20fe3e28c8d84dac5c",
  "id": 31704180,
  "location_subtype": "",
  "month": "2014-05"
}, {
  "category": "vehicle-crime",
  "location_type": "Force",
  "location": {
    "latitude": "51.588440",
    "street": {
      "id": 978562,
      "name": "On or near Grand Avenue"
    },
    "longitude": "-0.150538"
  },
  "context": "",
  "outcome_status": {
    "category": "Investigation complete; no suspect identified",
    "date": "2014-05"
  },
  "persistent_id": "fcc66f01b6386b59bea184e156935277d76f4329ee7c1d071b9ff3bdf4b6584c",
  "id": 31725881,
  "location_subtype": "",
  "month": "2014-05"
}, {
  "category": "vehicle-crime",
  "location_type": "Force",
  "location": {
    "latitude": "51.570071",
    "street": {
      "id": 972294,
      "name": "On or near Bisham Gardens"
    },
    "longitude": "-0.147272"
  },
  "context": "",
  "outcome_status": {
    "category": "Investigation complete; no suspect identified",
    "date": "2014-05"
  },
  "persistent_id": "2234361cc068a7c1255b4e158e51ff17aaab98885df003a1c9ba32881a9690d5",
  "id": 31726493,
  "location_subtype": "",
  "month": "2014-05"
}, {
  "category": "vehicle-crime",
  "location_type": "Force",
  "location": {
    "latitude": "51.584439",
    "street": {
      "id": 974652,
      "name": "On or near Bancroft Avenue"
    },
    "longitude": "-0.165452"
  },
  "context": "",
  "outcome_status": {
    "category": "Under investigation",
    "date": "2014-05"
  },
  "persistent_id": "68df740c18b1eaf27744b9bfaef8fc98dac520dc1a039a73c02e93f8c7b6fac1",
  "id": 31732492,
  "location_subtype": "",
  "month": "2014-05"
}, {
  "category": "vehicle-crime",
  "location_type": "Force",
  "location": {
    "latitude": "51.571023",
    "street": {
      "id": 972288,
      "name": "On or near Highgate High Street"
    },
    "longitude": "-0.148921"
  },
  "context": "",
  "outcome_status": {
    "category": "Under investigation",
    "date": "2014-05"
  },
  "persistent_id": "57535928221d57e07f10161ba0e1db69e71799881a3fb9142a89f73810cbf72c",
  "id": 31727983,
  "location_subtype": "",
  "month": "2014-05"
}, {
  "category": "vehicle-crime",
  "location_type": "Force",
  "location": {
    "latitude": "51.574444",
    "street": {
      "id": 974710,
      "name": "On or near Southwood Lane"
    },
    "longitude": "-0.148552"
  },
  "context": "",
  "outcome_status": {
    "category": "Under investigation",
    "date": "2014-05"
  },
  "persistent_id": "8c70ded9c1ba1b8005f456df83600bb7b2df31a4610a4ec8800665dc07cfd8a4",
  "id": 31725202,
  "location_subtype": "",
  "month": "2014-05"
}, {
  "category": "vehicle-crime",
  "location_type": "Force",
  "location": {
    "latitude": "51.584142",
    "street": {
      "id": 974715,
      "name": "On or near Onslow Gardens"
    },
    "longitude": "-0.144260"
  },
  "context": "",
  "outcome_status": {
    "category": "Under investigation",
    "date": "2014-05"
  },
  "persistent_id": "397e5ac728c9612b562c22c21f4a874aa7d4b1660c4fd0581724f4e5abebfe1c",
  "id": 31739725,
  "location_subtype": "",
  "month": "2014-05"
}, {
  "category": "vehicle-crime",
  "location_type": "Force",
  "location": {
    "latitude": "51.576870",
    "street": {
      "id": 974739,
      "name": "On or near Sheldon Avenue"
    },
    "longitude": "-0.160475"
  },
  "context": "",
  "outcome_status": {
    "category": "Under investigation",
    "date": "2014-05"
  },
  "persistent_id": "aa8af1b2adbfd0c102589696c7b3b1ba23ce53df961bc7406b37a80085d208ea",
  "id": 31741872,
  "location_subtype": "",
  "month": "2014-05"
}, {
  "category": "vehicle-crime",
  "location_type": "Force",
  "location": {
    "latitude": "51.564624",
    "street": {
      "id": 972277,
      "name": "On or near Makepeace Avenue"
    },
    "longitude": "-0.149686"
  },
  "context": "",
  "outcome_status": {
    "category": "Under investigation",
    "date": "2014-05"
  },
  "persistent_id": "c56043093e3e7bbd363ae3e0f22b8c2473ac4b6d9947ef9a689d21ac8d2b9c6a",
  "id": 31726141,
  "location_subtype": "",
  "month": "2014-05"
}, {
  "category": "vehicle-crime",
  "location_type": "Force",
  "location": {
    "latitude": "51.577433",
    "street": {
      "id": 974727,
      "name": "On or near Bramalea Close"
    },
    "longitude": "-0.152226"
  },
  "context": "",
  "outcome_status": {
    "category": "Under investigation",
    "date": "2014-05"
  },
  "persistent_id": "256de322a4d32642c61995f028ee798ef0cad3569db037654161fa9f783ae68f",
  "id": 31747772,
  "location_subtype": "",
  "month": "2014-05"
}, {
  "category": "vehicle-crime",
  "location_type": "Force",
  "location": {
    "latitude": "51.573510",
    "street": {
      "id": 974762,
      "name": "On or near Castle Yard"
    },
    "longitude": "-0.149210"
  },